[{"id": "cW8_VvgXmb-d_3tWzBuQow", "alias": "sidestreet-pho-alameda", "name": "Sidestreet Pho", "image_url": "https://s3-media3.fl.yelpcdn.com/bphoto/ABHLryY1iZvH83dNVV8o4A/o.jpg", "is_closed": false, "url": "https://www.yelp.com/biz/sidestreet-pho-alameda?adjust_creative=XsFzRbL2g2_AePzT00ptog&utm_campaign=yelp_api_v3&utm_medium=api_v3_business_search&utm_source=XsFzRbL2g2_AePzT00ptog", "review_count": 922, "categories": [{"alias": "vietnamese", "title": "Vietnamese"}, {"alias": "noodles", "title": "Noodles"}], "rating": 4.0, "coordinates": {"latitude": 37.7629323, "longitude": -122.2450717}, "transactions": ["delivery", "pickup"], "price": "$$", "location": {"address1": "2304 Encinal Ave", "address2": "", "address3": "", "city": "Alameda", "zip_code": "94501", "country": "US", "state": "CA", "display_address": ["2304 Encinal Ave", "Alameda, CA 94501"]}, "phone": "+15108085298", "display_phone": "(510) 808-5298", "distance": 1310.276277910552}, {"id": "A-YPiGfW6sXwKaR4_HSe5w", "alias": "pho-nation-express-alameda-2", "name": "Pho Nation Express", "image_url": "https://s3-media3.fl.yelpcdn.com/bphoto/a7lSu6dHLYg00S6SglWUpA/o.jpg", "is_closed": false, "url": "https://www.yelp.com/biz/pho-nation-express-alameda-2?adjust_creative=XsFzRbL2g2_AePzT00ptog&utm_campaign=yelp_api_v3&utm_medium=api_v3_business_search&utm_source=XsFzRbL2g2_AePzT00ptog", "review_count": 15, "categories": [{"alias": "vietnamese", "title": "Vietnamese"}], "rating": 4.5, "coordinates": {"latitude": 37.765615, "longitude": -122.24203}, "transactions": ["delivery", "pickup"], "location": {"address1": "2353 Santa Clara Ave", "address2": "", "address3": null, "city": "Alameda", "zip_code": "94501", "country": "US", "state": "CA", "display_address": ["2353 Santa Clara Ave", "Alameda, CA 94501"]}, "phone": "+15102394187", "display_phone": "(510) 239-4187", "distance": 1426.9084711838777}, {"id": "9khVsJM_HJUlnQBm8Z9AuQ", "alias": "mint-leaf-vietnamese-restaurant-alameda-2", "name": "Mint Leaf Vietnamese Restaurant", "image_url": "https://s3-media2.fl.yelpcdn.com/bphoto/PziXGSKOjJwv_lq0XDb88Q/o.jpg", "is_closed": false, "url": "https://www.yelp.com/biz/mint-leaf-vietnamese-restaurant-alameda-2?adjust_creative=XsFzRbL2g2_AePzT00ptog&utm_campaign=yelp_api_v3&utm_medium=api_v3_business_search&utm_source=XsFzRbL2g2_AePzT00ptog", "review_count": 439, "categories": [{"alias": "vietnamese", "title": "Vietnamese"}, {"alias": "salad", "title": "Salad"}, {"alias": "noodles", "title": "Noodles"}], "rating": 4.0, "coordinates": {"latitude": 37.7826864, "longitude": -122.2729898}, "transactions": ["delivery", "pickup"], "price": "$$", "location": {"address1": "831 Marina Village Pkwy", "address2": "", "address3": "", "city": "Alameda", "zip_code": "94501", "country": "US", "state": "CA", "display_address": ["831 Marina Village Pkwy", "Alameda, CA 94501"]}, "phone": "+15105222758", "display_phone": "(510) 522-2758", "distance": 2123.210275545395}, {"id": "ouAw6oihgt3Ricwcbf1fMA", "alias": "pho-anh-dao-alameda-alameda", "name": "Pho Anh Dao Alameda", "image_url": "https://s3-media2.fl.yelpcdn.com/bphoto/pk5SKYpUX3HaO0rUhKYSbA/o.jpg", "is_closed": false, "url": "https://www.yelp.com/biz/pho-anh-dao-alameda-alameda?adjust_creative=XsFzRbL2g2_AePzT00ptog&utm_campaign=yelp_api_v3&utm_medium=api_v3_business_search&utm_source=XsFzRbL2g2_AePzT00ptog", "review_count": 143, "categories": [{"alias": "vietnamese", "title": "Vietnamese"}], "rating": 3.5, "coordinates": {"latitude": 37.778843, "longitude": -122.276938}, "transactions": ["delivery"], "price": "$$", "location": {"address1": "1919 Webster St", "address2": "", "address3": "", "city": "Alameda", "zip_code": "94501", "country": "US", "state": "CA", "display_address": ["1919 Webster St", "Alameda, CA 94501"]}, "phone": "+15102638577", "display_phone": "(510) 263-8577", "distance": 2002.7570554095494}, {"id": "wrJ8EiaJSDuX4IZIIwgK5w", "alias": "rang-dong-restaurant-alameda-3", "name": "Rang Dong Restaurant", "image_url": "https://s3-media3.fl.yelpcdn.com/bphoto/zMmgXTB2cmRL-NP1V72DQQ/o.jpg", "is_closed": false, "url": "https://www.yelp.com/biz/rang-dong-restaurant-alameda-3?adjust_creative=XsFzRbL2g2_AePzT00ptog&utm_campaign=yelp_api_v3&utm_medium=api_v3_business_search&utm_source=XsFzRbL2g2_AePzT00ptog", "review_count": 393, "categories": [{"alias": "vietnamese", "title": "Vietnamese"}, {"alias": "coffee", "title": "Coffee & Tea"}], "rating": 4.0, "coordinates": {"latitude": 37.771191, "longitude": -122.277115}, "transactions": ["delivery", "pickup"], "price": "$$", "location": {"address1": "660 Central Ave", "address2": "Ste C", "address3": "", "city": "Alameda", "zip_code": "94501", "country": "US", "state": "CA", "display_address": ["660 Central Ave", "Ste C", "Alameda, CA 94501"]}, "phone": "+15108143938", "display_phone": "(510) 814-3938", "distance": 1731.3948315043378}, {"id": "SFAo5N0L7kN7AVBD-bTxqw", "alias": "bhan-mae-vane-alameda", "name": "Bhan Mae Vane", "image_url": "https://s3-media2.fl.yelpcdn.com/bphoto/GM9JtJaatmfw3fUsnZvEtw/o.jpg", "is_closed": false, "url": "https://www.yelp.com/biz/bhan-mae-vane-alameda?adjust_creative=XsFzRbL2g2_AePzT00ptog&utm_campaign=yelp_api_v3&utm_medium=api_v3_business_search&utm_source=XsFzRbL2g2_AePzT00ptog", "review_count": 255, "categories": [{"alias": "thai", "title": "Thai"}, {"alias": "laotian", "title": "Laotian"}], "rating": 4.5, "coordinates": {"latitude": 37.773686, "longitude": -122.277079}, "transactions": ["delivery", "pickup"], "price": "$$", "location": {"address1": "1511 Webster St", "address2": null, "address3": null, "city": "Alameda", "zip_code": "94501", "country": "US", "state": "CA", "display_address": ["1511 Webster St", "Alameda, CA 94501"]}, "phone": "+15102275197", "display_phone": "(510) 227-5197", "distance": 1779.5781950611474}, {"id": "7GuQ9-aCQ7m-A-I-1tRAoQ", "alias": "vietnam-house-alameda", "name": "Vietnam House", "image_url": "https://s3-media1.fl.yelpcdn.com/bphoto/PBQfBOxC25ckE3p8QLWcuw/o.jpg", "is_closed": false, "url": "https://www.yelp.com/biz/vietnam-house-alameda?adjust_creative=XsFzRbL2g2_AePzT00ptog&utm_campaign=yelp_api_v3&utm_medium=api_v3_business_search&utm_source=XsFzRbL2g2_AePzT00ptog", "review_count": 159, "categories": [{"alias": "vietnamese", "title": "Vietnamese"}, {"alias": "soup", "title": "Soup"}, {"alias": "sandwiches", "title": "Sandwiches"}], "rating": 3.5, "coordinates": {"latitude": 37.7661670327951, "longitude": -122.241356000304}, "transactions": ["delivery"], "price": "$$", "location": {"address1": "1529 Park St", "address2": "", "address3": "", "city": "Alameda", "zip_code": "94501", "country": "US", "state": "CA", "display_address": ["1529 Park St", "Alameda, CA 94501"]}, "phone": "+15108644022", "display_phone": "(510) 864-4022", "distance": 1468.9109474933664}, {"id": "oQR41zweI139uxBgiVCl_w", "alias": "pho-sinh-alameda-4", "name": "Pho Sinh", "image_url": "https://s3-media2.fl.yelpcdn.com/bphoto/gZkOo6dEY4E4VX6Qpap0eA/o.jpg", "is_closed": false, "url": "https://www.yelp.com/biz/pho-sinh-alameda-4?adjust_creative=XsFzRbL2g2_AePzT00ptog&utm_campaign=yelp_api_v3&utm_medium=api_v3_business_search&utm_source=XsFzRbL2g2_AePzT00ptog", "review_count": 257, "categories": [{"alias": "vietnamese", "title": "Vietnamese"}], "rating": 3.0, "coordinates": {"latitude": 37.76502, "longitude": -122.24193}, "transactions": ["delivery", "pickup"], "price": "$", "location": {"address1": "1434 Park St", "address2": "", "address3": "", "city": "Alameda", "zip_code": "94501", "country": "US", "state": "CA", "display_address": ["1434 Park St", "Alameda, CA 94501"]}, "phone": "+15107698836", "display_phone": "(510) 769-8836", "distance": 1456.796210424853}, {"id": "4j1zqAwHCr07lKCCAiztAA", "alias": "wild-ginger-alameda", "name": "Wild Ginger", "image_url": "https://s3-media2.fl.yelpcdn.com/bphoto/OtidlXXabPw2SQmfj3WzbQ/o.jpg", "is_closed": false, "url": "https://www.yelp.com/biz/wild-ginger-alameda?adjust_creative=XsFzRbL2g2_AePzT00ptog&utm_campaign=yelp_api_v3&utm_medium=api_v3_business_search&utm_source=XsFzRbL2g2_AePzT00ptog", "review_count": 481, "categories": [{"alias": "chinese", "title": "Chinese"}, {"alias": "noodles", "title": "Noodles"}, {"alias": "burgers", "title": "Burgers"}], "rating": 4.5, "coordinates": {"latitude": 37.7620099, "longitude": -122.24491}, "transactions": ["delivery", "pickup"], "price": "$$", "location": {"address1": "1239 Park St", "address2": null, "address3": "", "city": "Alameda", "zip_code": "94501", "country": "US", "state": "CA", "display_address": ["1239 Park St", "Alameda, CA 94501"]}, "phone": "+15102638128", "display_phone": "(510) 263-8128", "distance": 1383.8588030129777}, {"id": "nll5BMxM2u9FfOfec4oqtA", "alias": "pho-huong-que-oakland-2", "name": "Pho Huong Que", "image_url": "https://s3-media3.fl.yelpcdn.com/bphoto/Xxn0pr4aZZGvOcFY0kGLbA/o.jpg", "is_closed": false, "url": "https://www.yelp.com/biz/pho-huong-que-oakland-2?adjust_creative=XsFzRbL2g2_AePzT00ptog&utm_campaign=yelp_api_v3&utm_medium=api_v3_business_search&utm_source=XsFzRbL2g2_AePzT00ptog", "review_count": 177, "categories": [{"alias": "vietnamese", "title": "Vietnamese"}], "rating": 4.5, "coordinates": {"latitude": 37.79802, "longitude": -122.25594}, "transactions": ["delivery", "pickup"], "price": "$$", "location": {"address1": "200 International Blvd", "address2": null, "address3": "", "city": "Oakland", "zip_code": "94606", "country": "US", "state": "CA", "display_address": ["200 International Blvd", "Oakland, CA 94606"]}, "phone": "+15107884282", "display_phone": "(510) 788-4282", "distance": 3184.108077743028}, {"id": "Tenb6Y3eCC72WlDAVaH0Gw", "alias": "pho-vy-vietnamese-cuisine-oakland-2", "name": "Pho Vy Vietnamese Cuisine", "image_url": "https://s3-media2.fl.yelpcdn.com/bphoto/te2ODKMPyODVaU6YUDy7UQ/o.jpg", "is_closed": false, "url": "https://www.yelp.com/biz/pho-vy-vietnamese-cuisine-oakland-2?adjust_creative=XsFzRbL2g2_AePzT00ptog&utm_campaign=yelp_api_v3&utm_medium=api_v3_business_search&utm_source=XsFzRbL2g2_AePzT00ptog", "review_count": 284, "categories": [{"alias": "vietnamese", "title": "Vietnamese"}, {"alias": "noodles", "title": "Noodles"}, {"alias": "soup", "title": "Soup"}], "rating": 4.5, "coordinates": {"latitude": 37.79621, "longitude": -122.25478}, "transactions": ["delivery"], "price": "$$", "location": {"address1": "401 International Blvd", "address2": "", "address3": null, "city": "Oakland", "zip_code": "94606", "country": "US", "state": "CA", "display_address": ["401 International Blvd", "Oakland, CA 94606"]}, "phone": "+15108932827", "display_phone": "(510) 893-2827", "distance": 2996.9817214956915}, {"id": "s-VATOFLJeb4nAJC2W-VPw", "alias": "pho-king-oakland", "name": "Pho King", "image_url": "https://s3-media2.fl.yelpcdn.com/bphoto/bQasSjYVaENmJVVixRdLRA/o.jpg", "is_closed": false, "url": "https://www.yelp.com/biz/pho-king-oakland?adjust_creative=XsFzRbL2g2_AePzT00ptog&utm_campaign=yelp_api_v3&utm_medium=api_v3_business_search&utm_source=XsFzRbL2g2_AePzT00ptog", "review_count": 700, "categories": [{"alias": "vietnamese", "title": "Vietnamese"}], "rating": 4.0, "coordinates": {"latitude": 37.7999322365235, "longitude": -122.2538778372336}, "transactions": ["delivery"], "price": "$$", "location": {"address1": "207 E 18th St", "address2": null, "address3": "", "city": "Oakland", "zip_code": "94606", "country": "US", "state": "CA", "display_address": ["207 E 18th St", "Oakland, CA 94606"]}, "phone": "+15104440448", "display_phone": "(510) 444-0448", "distance": 3416.457269797959}, {"id": "BIAvMuRWS_WWmTjK_qBh2g", "alias": "phnom-penh-house-alameda-2", "name": "Phnom Penh House", "image_url": "https://s3-media1.fl.yelpcdn.com/bphoto/mVzGECMj9IwZa_oLcEFkrA/o.jpg", "is_closed": false, "url": "https://www.yelp.com/biz/phnom-penh-house-alameda-2?adjust_creative=XsFzRbL2g2_AePzT00ptog&utm_campaign=yelp_api_v3&utm_medium=api_v3_business_search&utm_source=XsFzRbL2g2_AePzT00ptog", "review_count": 1030, "categories": [{"alias": "cambodian", "title": "Cambodian"}, {"alias": "seafood", "title": "Seafood"}], "rating": 4.5, "coordinates": {"latitude": 37.77385, "longitude": -122.27646}, "transactions": ["delivery"], "price": "$$", "location": {"address1": "1514 Webster St", "address2": "", "address3": "", "city": "Alameda", "zip_code": "94501", "country": "US", "state": "CA", "display_address": ["1514 Webster St", "Alameda, CA 94501"]}, "phone": "+15108933825", "display_phone": "(510) 893-3825", "distance": 1739.8004473292028}, {"id": "5MIC8R67_ZKCZeIhNQcL3Q", "alias": "dragon-rouge-bistro-alameda-alameda", "name": "Dragon Rouge Bistro Alameda", "image_url": "https://s3-media2.fl.yelpcdn.com/bphoto/IkVEhmFWZ1MnB7LdIGvx0Q/o.jpg", "is_closed": false, "url": "https://www.yelp.com/biz/dragon-rouge-bistro-alameda-alameda?adjust_creative=XsFzRbL2g2_AePzT00ptog&utm_campaign=yelp_api_v3&utm_medium=api_v3_business_search&utm_source=XsFzRbL2g2_AePzT00ptog", "review_count": 1029, "categories": [{"alias": "vietnamese", "title": "Vietnamese"}, {"alias": "bars", "title": "Bars"}], "rating": 3.5, "coordinates": {"latitude": 37.77146, "longitude": -122.2375724}, "transactions": ["delivery", "pickup"], "price": "$$", "location": {"address1": "2337 Blanding Ave", "address2": "", "address3": "", "city": "Alameda", "zip_code": "94501", "country": "US", "state": "CA", "display_address": ["2337 Blanding Ave", "Alameda, CA 94501"]}, "phone": "+15105211800", "display_phone": "(510) 521-1800", "distance": 1773.877003966546}, {"id": "Td7CmLpJWZIFCwNgVbMLwg", "alias": "tu-tai-2-alameda", "name": "Tu Tai 2", "image_url": "https://s3-media1.fl.yelpcdn.com/bphoto/5u_ADYK_sDdejO9GXu5ttg/o.jpg", "is_closed": false, "url": "https://www.yelp.com/biz/tu-tai-2-alameda?adjust_creative=XsFzRbL2g2_AePzT00ptog&utm_campaign=yelp_api_v3&utm_medium=api_v3_business_search&utm_source=XsFzRbL2g2_AePzT00ptog", "review_count": 199, "categories": [{"alias": "vietnamese", "title": "Vietnamese"}], "rating": 3.5, "coordinates": {"latitude": 37.7744789123535, "longitude": -122.277061462402}, "transactions": ["delivery"], "price": "$", "location": {"address1": "1531 Webster St", "address2": "", "address3": "", "city": "Alameda", "zip_code": "94501", "country": "US", "state": "CA", "display_address": ["1531 Webster St", "Alameda, CA 94501"]}, "phone": "+15105236993", "display_phone": "(510) 523-6993", "distance": 1805.9498103366216}, {"id": "aiznKwYsKo8DyFBxcB_6Mg", "alias": "pho-ao-sen-oakland-3", "name": "Pho Ao Sen", "image_url": "https://s3-media1.fl.yelpcdn.com/bphoto/TZXk5izOal1NqgSL-KOkgQ/o.jpg", "is_closed": false, "url": "https://www.yelp.com/biz/pho-ao-sen-oakland-3?adjust_creative=XsFzRbL2g2_AePzT00ptog&utm_campaign=yelp_api_v3&utm_medium=api_v3_business_search&utm_source=XsFzRbL2g2_AePzT00ptog", "review_count": 912, "categories": [{"alias": "vietnamese", "title": "Vietnamese"}, {"alias": "noodles", "title": "Noodles"}], "rating": 3.5, "coordinates": {"latitude": 37.79003, "longitude": -122.24963}, "transactions": ["delivery"], "price": "$$", "location": {"address1": "1139 E 12th St", "address2": "", "address3": "", "city": "Oakland", "zip_code": "94606", "country": "US", "state": "CA", "display_address": ["1139 E 12th St", "Oakland, CA 94606"]}, "phone": "+15108355588", "display_phone": "(510) 835-5588", "distance": 2408.1367309064144}, {"id": "IJF-4E8Mhm5teI5RHrH5yw", "alias": "banh-mi-ba-le-oakland", "name": "Banh Mi Ba Le", "image_url": "https://s3-media2.fl.yelpcdn.com/bphoto/QhBrxaQVLBfLJhN4zU_MGg/o.jpg", "is_closed": false, "url": "https://www.yelp.com/biz/banh-mi-ba-le-oakland?adjust_creative=XsFzRbL2g2_AePzT00ptog&utm_campaign=yelp_api_v3&utm_medium=api_v3_business_search&utm_source=XsFzRbL2g2_AePzT00ptog", "review_count": 1285, "categories": [{"alias": "vietnamese", "title": "Vietnamese"}, {"alias": "sandwiches", "title": "Sandwiches"}], "rating": 4.5, "coordinates": {"latitude": 37.78606, "longitude": -122.24101}, "transactions": ["delivery"], "price": "$", "location": {"address1": "1909 International Blvd", "address2": "", "address3": "", "city": "Oakland", "zip_code": "94606", "country": "US", "state": "CA", "display_address": ["1909 International Blvd", "Oakland, CA 94606"]}, "phone": "+15102619800", "display_phone": "(510) 261-9800", "distance": 2371.034782184215}, {"id": "62KErINfDFr4_rOLBUYtiA", "alias": "lemon-pepper-vietnamese-cuisine-oakland", "name": "Lemon Pepper Vietnamese Cuisine", "image_url": "https://s3-media1.fl.yelpcdn.com/bphoto/qXotKg9RTKIkyIBU49RZqA/o.jpg", "is_closed": false, "url": "https://www.yelp.com/biz/lemon-pepper-vietnamese-cuisine-oakland?adjust_creative=XsFzRbL2g2_AePzT00ptog&utm_campaign=yelp_api_v3&utm_medium=api_v3_business_search&utm_source=XsFzRbL2g2_AePzT00ptog", "review_count": 73, "categories": [{"alias": "vietnamese", "title": "Vietnamese"}], "rating": 5.0, "coordinates": {"latitude": 37.79081690701222, "longitude": -122.24978590606128}, "transactions": ["delivery"], "price": "$$", "location": {"address1": "1060 E 12th St", "address2": "", "address3": null, "city": "Oakland", "zip_code": "94606", "country": "US", "state": "CA", "display_address": ["1060 E 12th St", "Oakland, CA 94606"]}, "phone": "+15108797070", "display_phone": "(510) 879-7070", "distance": 2483.613692368212}, {"id": "V7275TGCr862jdkttAqAuw", "alias": "pho-king-oakland-3", "name": "Pho King", "image_url": "https://s3-media4.fl.yelpcdn.com/bphoto/2l2XbovgbMiUA0YpwoeJyA/o.jpg", "is_closed": false, "url": "https://www.yelp.com/biz/pho-king-oakland-3?adjust_creative=XsFzRbL2g2_AePzT00ptog&utm_campaign=yelp_api_v3&utm_medium=api_v3_business_search&utm_source=XsFzRbL2g2_AePzT00ptog", "review_count": 53, "categories": [{"alias": "vietnamese", "title": "Vietnamese"}], "rating": 4.5, "coordinates": {"latitude": 37.79477, "longitude": -122.25224}, "transactions": ["delivery"], "price": "$$", "location": {"address1": "638 International Blvd", "address2": null, "address3": "", "city": "Oakland", "zip_code": "94606", "country": "US", "state": "CA", "display_address": ["638 International Blvd", "Oakland, CA 94606"]}, "phone": "+15102509289", "display_phone": "(510) 250-9289", "distance": 2858.396065406139}, {"id": "tbAsBj5sjPtodpLsSwX2rQ", "alias": "pho-ga-huong-que-cafe-oakland", "name": "Pho Ga Huong Que Cafe", "image_url": "https://s3-media2.fl.yelpcdn.com/bphoto/9sWKE7lck2ajJWJ_8pD--A/o.jpg", "is_closed": false, "url": "https://www.yelp.com/biz/pho-ga-huong-que-cafe-oakland?adjust_creative=XsFzRbL2g2_AePzT00ptog&utm_campaign=yelp_api_v3&utm_medium=api_v3_business_search&utm_source=XsFzRbL2g2_AePzT00ptog", "review_count": 431, "categories": [{"alias": "vietnamese", "title": "Vietnamese"}], "rating": 4.0, "coordinates": {"latitude": 37.7938785422441, "longitude": -122.252575940866}, "transactions": ["delivery"], "price": "$", "location": {"address1": "1228 7th Ave", "address2": "", "address3": "", "city": "Oakland", "zip_code": "94606", "country": "US", "state": "CA", "display_address": ["1228 7th Ave", "Oakland, CA 94606"]}, "phone": "+15108358488", "display_phone": "(510) 835-8488", "distance": 2758.078848483514}, {"id": "tbAsBj5sjPtodpLsSwX2rQ", "alias": "pho-ga-huong-que-cafe-oakland", "name": "Pho Ga Huong Que Cafe", "image_url": "https://s3-media2.fl.yelpcdn.com/bphoto/9sWKE7lck2ajJWJ_8pD--A/o.jpg", "is_closed": false, "url": "https://www.yelp.com/biz/pho-ga-huong-que-cafe-oakland?adjust_creative=XsFzRbL2g2_AePzT00ptog&utm_campaign=yelp_api_v3&utm_medium=api_v3_business_search&utm_source=XsFzRbL2g2_AePzT00ptog", "review_count": 431, "categories": [{"alias": "vietnamese", "title": "Vietnamese"}], "rating": 4.0, "coordinates": {"latitude": 37.7938785422441, "longitude": -122.252575940866}, "transactions": ["delivery"], "price": "$", "location": {"address1": "1228 7th Ave", "address2": "", "address3": "", "city": "Oakland", "zip_code": "94606", "country": "US", "state": "CA", "display_address": ["1228 7th Ave", "Oakland, CA 94606"]}, "phone": "+15108358488", "display_phone": "(510) 835-8488", "distance": 2758.078848483514}, {"id": "FY77_RoUApLo4FOu18nqoQ", "alias": "da-nang-quan-oakland-4", "name": "Da Nang Quan", "image_url": "https://s3-media4.fl.yelpcdn.com/bphoto/GEeKstAYUHWyeru_NcSXgQ/o.jpg", "is_closed": false, "url": "https://www.yelp.com/biz/da-nang-quan-oakland-4?adjust_creative=XsFzRbL2g2_AePzT00ptog&utm_campaign=yelp_api_v3&utm_medium=api_v3_business_search&utm_source=XsFzRbL2g2_AePzT00ptog", "review_count": 246, "categories": [{"alias": "vietnamese", "title": "Vietnamese"}], "rating": 4.0, "coordinates": {"latitude": 37.7941101029318, "longitude": -122.25384671241}, "transactions": ["pickup"], "price": "$$", "location": {"address1": "615 E 12th St", "address2": "", "address3": "", "city": "Oakland", "zip_code": "94606", "country": "US", "state": "CA", "display_address": ["615 E 12th St", "Oakland, CA 94606"]}, "phone": "+15102681368", "display_phone": "(510) 268-1368", "distance": 2773.0094305199545}, {"id": "5SwPjFq4R1o9TcD-ks-ocA", "alias": "vien-huong-restaurant-oakland", "name": "Vien Huong Restaurant", "image_url": "https://s3-media1.fl.yelpcdn.com/bphoto/8yOf9lDuC-4w0s0pKy4Hpg/o.jpg", "is_closed": false, "url": "https://www.yelp.com/biz/vien-huong-restaurant-oakland?adjust_creative=XsFzRbL2g2_AePzT00ptog&utm_campaign=yelp_api_v3&utm_medium=api_v3_business_search&utm_source=XsFzRbL2g2_AePzT00ptog", "review_count": 919, "categories": [{"alias": "chinese", "title": "Chinese"}, {"alias": "vietnamese", "title": "Vietnamese"}, {"alias": "noodles", "title": "Noodles"}], "rating": 4.0, "coordinates": {"latitude": 37.7992477416992, "longitude": -122.272529602051}, "transactions": ["delivery"], "price": "$$", "location": {"address1": "712 Franklin St", "address2": "", "address3": "", "city": "Oakland", "zip_code": "94607", "country": "US", "state": "CA", "display_address": ["712 Franklin St", "Oakland, CA 94607"]}, "phone": "+15104655938", "display_phone": "(510) 465-5938", "distance": 3575.791541999794}, {"id": "j-jVDjcZmAcxuzzaNlYwVg", "alias": "mam-hanoi-restaurant-oakland", "name": "Mam Hanoi Restaurant", "image_url": "https://s3-media1.fl.yelpcdn.com/bphoto/zlVKjs1qnPf8OIzLJf5_3A/o.jpg", "is_closed": false, "url": "https://www.yelp.com/biz/mam-hanoi-restaurant-oakland?adjust_creative=XsFzRbL2g2_AePzT00ptog&utm_campaign=yelp_api_v3&utm_medium=api_v3_business_search&utm_source=XsFzRbL2g2_AePzT00ptog", "review_count": 45, "categories": [{"alias": "vietnamese", "title": "Vietnamese"}], "rating": 4.0, "coordinates": {"latitude": 37.7996311, "longitude": -122.2685338}, "transactions": [], "price": "$$", "location": {"address1": "261A 10th St", "address2": "", "address3": null, "city": "Oakland", "zip_code": "94607", "country": "US", "state": "CA", "display_address": ["261A 10th St", "Oakland, CA 94607"]}, "phone": "+15108174421", "display_phone": "(510) 817-4421", "distance": 3502.460244957502}, {"id": "bmN8MBIEwdfvBlKJbnVfBg", "alias": "tay-ho-oakland-restaurant-and-bar-oakland-8", "name": "Tay Ho Oakland Restaurant & Bar", "image_url": "https://s3-media4.fl.yelpcdn.com/bphoto/O-P5rek9XQPEocvgIxJj3Q/o.jpg", "is_closed": false, "url": "https://www.yelp.com/biz/tay-ho-oakland-restaurant-and-bar-oakland-8?adjust_creative=XsFzRbL2g2_AePzT00ptog&utm_campaign=yelp_api_v3&utm_medium=api_v3_business_search&utm_source=XsFzRbL2g2_AePzT00ptog", "review_count": 721, "categories": [{"alias": "vietnamese", "title": "Vietnamese"}, {"alias": "cocktailbars", "title": "Cocktail Bars"}, {"alias": "noodles", "title": "Noodles"}], "rating": 4.0, "coordinates": {"latitude": 37.80211, "longitude": -122.26923}, "transactions": ["delivery", "pickup"], "price": "$$", "location": {"address1": "344 12th St", "address2": "Ste B", "address3": "", "city": "Oakland", "zip_code": "94607", "country": "US", "state": "CA", "display_address": ["344 12th St", "Ste B", "Oakland, CA 94607"]}, "phone": "+15108366388", "display_phone": "(510) 836-6388", "distance": 3787.2101997572618}, {"id": "wA0gYoCGG8A8Xdx3zdrxCg", "alias": "binh-minh-quan-oakland", "name": "Binh Minh Quan", "image_url": "https://s3-media2.fl.yelpcdn.com/bphoto/Jl7np6TN25vhRwDUYFrV9g/o.jpg", "is_closed": false, "url": "https://www.yelp.com/biz/binh-minh-quan-oakland?adjust_creative=XsFzRbL2g2_AePzT00ptog&utm_campaign=yelp_api_v3&utm_medium=api_v3_business_search&utm_source=XsFzRbL2g2_AePzT00ptog", "review_count": 647, "categories": [{"alias": "vietnamese", "title": "Vietnamese"}], "rating": 4.0, "coordinates": {"latitude": 37.8019186109304, "longitude": -122.269302606583}, "transactions": ["pickup"], "price": "$$", "location": {"address1": "338 12th St", "address2": "", "address3": "", "city": "Oakland", "zip_code": "94607", "country": "US", "state": "CA", "display_address": ["338 12th St", "Oakland, CA 94607"]}, "phone": "+15108938136", "display_phone": "(510) 893-8136", "distance": 3774.942330224264}, {"id": "L6WsyFVf9UahURn0Fudsbg", "alias": "monster-pho-oakland", "name": "Monster Pho", "image_url": "https://s3-media1.fl.yelpcdn.com/bphoto/XbU4av3rYZ6rZ1nH4RnmbQ/o.jpg", "is_closed": false, "url": "https://www.yelp.com/biz/monster-pho-oakland?adjust_creative=XsFzRbL2g2_AePzT00ptog&utm_campaign=yelp_api_v3&utm_medium=api_v3_business_search&utm_source=XsFzRbL2g2_AePzT00ptog", "review_count": 1163, "categories": [{"alias": "vietnamese", "title": "Vietnamese"}, {"alias": "soup", "title": "Soup"}, {"alias": "noodles", "title": "Noodles"}], "rating": 4.0, "coordinates": {"latitude": 37.82844, "longitude": -122.25811}, "transactions": ["delivery"], "price": "$$", "location": {"address1": "360 40th St", "address2": null, "address3": "", "city": "Oakland", "zip_code": "94609", "country": "US", "state": "CA", "display_address": ["360 40th St", "Oakland, CA 94609"]}, "phone": "+15107884459", "display_phone": "(510) 788-4459", "distance": 6559.515951649908}, {"id": "YPaoXRpJ0V3b5jEaQYq2rg", "alias": "pho-nation-alameda", "name": "Pho Nation", "image_url": "https://s3-media4.fl.yelpcdn.com/bphoto/nQtmPhX2lVx_4kQOeE2CDQ/o.jpg", "is_closed": false, "url": "https://www.yelp.com/biz/pho-nation-alameda?adjust_creative=XsFzRbL2g2_AePzT00ptog&utm_campaign=yelp_api_v3&utm_medium=api_v3_business_search&utm_source=XsFzRbL2g2_AePzT00ptog", "review_count": 7, "categories": [{"alias": "vietnamese", "title": "Vietnamese"}, {"alias": "bars", "title": "Bars"}], "rating": 3.5, "coordinates": {"latitude": 37.765885, "longitude": -122.241901}, "transactions": [], "location": {"address1": "1511 Park St", "address2": "", "address3": null, "city": "Alameda", "zip_code": "94501", "country": "US", "state": "CA", "display_address": ["1511 Park St", "Alameda, CA 94501"]}, "phone": "", "display_phone": "", "distance": 1430.5804905149184}, {"id": "e1lEh3niOWdBjwOjN-vMMg", "alias": "wing-wah-pho-ga-oakland-2", "name": "Wing Wah Pho Ga", "image_url": "https://s3-media1.fl.yelpcdn.com/bphoto/-qVyFlTwVMYpxyjS9TN3uA/o.jpg", "is_closed": false, "url": "https://www.yelp.com/biz/wing-wah-pho-ga-oakland-2?adjust_creative=XsFzRbL2g2_AePzT00ptog&utm_campaign=yelp_api_v3&utm_medium=api_v3_business_search&utm_source=XsFzRbL2g2_AePzT00ptog", "review_count": 147, "categories": [{"alias": "vietnamese", "title": "Vietnamese"}, {"alias": "noodles", "title": "Noodles"}], "rating": 4.0, "coordinates": {"latitude": 37.7896129171028, "longitude": -122.248836615344}, "transactions": ["delivery"], "price": "$$", "location": {"address1": "1221 E 12th St", "address2": "", "address3": "", "city": "Oakland", "zip_code": "94606", "country": "US", "state": "CA", "display_address": ["1221 E 12th St", "Oakland, CA 94606"]}, "phone": "+15105336690", "display_phone": "(510) 533-6690", "distance": 2380.8045750984334}, {"id": "toTxD6B3bZcUGeBtoXJgBA", "alias": "yojimbo-alameda", "name": "Yojimbo", "image_url": "https://s3-media4.fl.yelpcdn.com/bphoto/7TMurxZZ92qG7Z52tkiYZQ/o.jpg", "is_closed": false, "url": "https://www.yelp.com/biz/yojimbo-alameda?adjust_creative=XsFzRbL2g2_AePzT00ptog&utm_campaign=yelp_api_v3&utm_medium=api_v3_business_search&utm_source=XsFzRbL2g2_AePzT00ptog", "review_count": 1574, "categories": [{"alias": "sushi", "title": "Sushi Bars"}, {"alias": "japanese", "title": "Japanese"}], "rating": 4.0, "coordinates": {"latitude": 37.761635, "longitude": -122.245466}, "transactions": ["delivery", "pickup"], "price": "$$", "location": {"address1": "1221 Park St", "address2": "", "address3": "", "city": "Alameda", "zip_code": "94501", "country": "US", "state": "CA", "display_address": ["1221 Park St", "Alameda, CA 94501"]}, "phone": "+15105234120", "display_phone": "(510) 523-4120", "distance": 1366.907189367875}, {"id": "N53bTFOYq-ZtxUzA7GAByg", "alias": "hanoi-chicken-noodle-san-leandro", "name": "Hanoi Chicken Noodle", "image_url": "https://s3-media3.fl.yelpcdn.com/bphoto/C9xEd3-zTWZalCRwnKuYGw/o.jpg", "is_closed": false, "url": "https://www.yelp.com/biz/hanoi-chicken-noodle-san-leandro?adjust_creative=XsFzRbL2g2_AePzT00ptog&utm_campaign=yelp_api_v3&utm_medium=api_v3_business_search&utm_source=XsFzRbL2g2_AePzT00ptog", "review_count": 312, "categories": [{"alias": "noodles", "title": "Noodles"}, {"alias": "chinese", "title": "Chinese"}, {"alias": "soup", "title": "Soup"}], "rating": 4.0, "coordinates": {"latitude": 37.69982, "longitude": -122.17564}, "transactions": ["delivery", "pickup"], "price": "$$", "location": {"address1": "13720 Doolittle Dr", "address2": "", "address3": null, "city": "San Leandro", "zip_code": "94577", "country": "US", "state": "CA", "display_address": ["13720 Doolittle Dr", "San Leandro, CA 94577"]}, "phone": "+15108789949", "display_phone": "(510) 878-9949", "distance": 10568.135138320538}, {"id": "q10g4aOCZWTuJ58d21hfLw", "alias": "anh-hong-oakland", "name": "Anh Hong", "image_url": "https://s3-media3.fl.yelpcdn.com/bphoto/-1qI_duP6kOhWSA-siuM6A/o.jpg", "is_closed": false, "url": "https://www.yelp.com/biz/anh-hong-oakland?adjust_creative=XsFzRbL2g2_AePzT00ptog&utm_campaign=yelp_api_v3&utm_medium=api_v3_business_search&utm_source=XsFzRbL2g2_AePzT00ptog", "review_count": 69, "categories": [{"alias": "vietnamese", "title": "Vietnamese"}], "rating": 4.5, "coordinates": {"latitude": 37.79381, "longitude": -122.252}, "transactions": ["delivery"], "price": "$$", "location": {"address1": "725 International Blvd", "address2": null, "address3": "", "city": "Oakland", "zip_code": "94606", "country": "US", "state": "CA", "display_address": ["725 International Blvd", "Oakland, CA 94606"]}, "phone": "+15102509466", "display_phone": "(510) 250-9466", "distance": 2766.156805480878}, {"id": "rn8YucY2a8eiTPNfTl3_dg", "alias": "mac-khai-oakland", "name": "Mac Khai", "image_url": "https://s3-media2.fl.yelpcdn.com/bphoto/Oxjy_7JwQ1FIItiJUFymnA/o.jpg", "is_closed": false, "url": "https://www.yelp.com/biz/mac-khai-oakland?adjust_creative=XsFzRbL2g2_AePzT00ptog&utm_campaign=yelp_api_v3&utm_medium=api_v3_business_search&utm_source=XsFzRbL2g2_AePzT00ptog", "review_count": 231, "categories": [{"alias": "vietnamese", "title": "Vietnamese"}], "rating": 3.5, "coordinates": {"latitude": 37.7990967676037, "longitude": -122.273559680752}, "transactions": ["delivery", "pickup"], "price": "$", "location": {"address1": "417 7th St", "address2": "", "address3": "", "city": "Oakland", "zip_code": "94607", "country": "US", "state": "CA", "display_address": ["417 7th St", "Oakland, CA 94607"]}, "phone": "+15108938882", "display_phone": "(510) 893-8882", "distance": 3593.928402574507}, {"id": "iNEo4dRQBgS2uBpprxMUmw", "alias": "pho-84-oakland", "name": "Pho 84", "image_url": "https://s3-media2.fl.yelpcdn.com/bphoto/gZwRE28RM8Js1G9uDu9dSQ/o.jpg", "is_closed": false, "url": "https://www.yelp.com/biz/pho-84-oakland?adjust_creative=XsFzRbL2g2_AePzT00ptog&utm_campaign=yelp_api_v3&utm_medium=api_v3_business_search&utm_source=XsFzRbL2g2_AePzT00ptog", "review_count": 693, "categories": [{"alias": "vietnamese", "title": "Vietnamese"}], "rating": 4.0, "coordinates": {"latitude": 37.8058513998985, "longitude": -122.267539054155}, "transactions": ["delivery", "pickup"], "price": "$$", "location": {"address1": "354 17th St", "address2": "", "address3": "", "city": "Oakland", "zip_code": "94612", "country": "US", "state": "CA", "display_address": ["354 17th St", "Oakland, CA 94612"]}, "phone": "+15108321338", "display_phone": "(510) 832-1338", "distance": 4158.478278883158}, {"id": "6_ECXHsNTg9weAJdVCcd_A", "alias": "thanh-ky-restaurant-oakland", "name": "Thanh Ky Restaurant", "image_url": "https://s3-media4.fl.yelpcdn.com/bphoto/Crgki200TfA9ZX2EsKEDmg/o.jpg", "is_closed": false, "url": "https://www.yelp.com/biz/thanh-ky-restaurant-oakland?adjust_creative=XsFzRbL2g2_AePzT00ptog&utm_campaign=yelp_api_v3&utm_medium=api_v3_business_search&utm_source=XsFzRbL2g2_AePzT00ptog", "review_count": 367, "categories": [{"alias": "chinese", "title": "Chinese"}, {"alias": "soup", "title": "Soup"}, {"alias": "vietnamese", "title": "Vietnamese"}], "rating": 4.0, "coordinates": {"latitude": 37.7936323, "longitude": -122.2533973}, "transactions": ["delivery"], "price": "$$", "location": {"address1": "659 E 12th St", "address2": "", "address3": "", "city": "Oakland", "zip_code": "94606", "country": "US", "state": "CA", "display_address": ["659 E 12th St", "Oakland, CA 94606"]}, "phone": "+15107638801", "display_phone": "(510) 763-8801", "distance": 2718.4815115437427}, {"id": "dx4kNRCal2dpKoCNikG5YA", "alias": "pho-anh-dao-oakland", "name": "Pho Anh Dao", "image_url": "https://s3-media2.fl.yelpcdn.com/bphoto/lGSOvCd1uf7PYvOI77kk1Q/o.jpg", "is_closed": false, "url": "https://www.yelp.com/biz/pho-anh-dao-oakland?adjust_creative=XsFzRbL2g2_AePzT00ptog&utm_campaign=yelp_api_v3&utm_medium=api_v3_business_search&utm_source=XsFzRbL2g2_AePzT00ptog", "review_count": 341, "categories": [{"alias": "vietnamese", "title": "Vietnamese"}], "rating": 3.5, "coordinates": {"latitude": 37.7999325, "longitude": -122.2522048}, "transactions": ["delivery"], "price": "$", "location": {"address1": "280 E 18th St", "address2": "", "address3": "", "city": "Oakland", "zip_code": "94606", "country": "US", "state": "CA", "display_address": ["280 E 18th St", "Oakland, CA 94606"]}, "phone": "+15108361566", "display_phone": "(510) 836-1566", "distance": 3438.028559002175}, {"id": "qTyMsvyHoERI-nXzl1rnPg", "alias": "sticky-rice-cafe-oakland", "name": "Sticky Rice Cafe", "image_url": "https://s3-media3.fl.yelpcdn.com/bphoto/t9FqqS6ZnmsCAUyfgmR4KQ/o.jpg", "is_closed": false, "url": "https://www.yelp.com/biz/sticky-rice-cafe-oakland?adjust_creative=XsFzRbL2g2_AePzT00ptog&utm_campaign=yelp_api_v3&utm_medium=api_v3_business_search&utm_source=XsFzRbL2g2_AePzT00ptog", "review_count": 359, "categories": [{"alias": "thai", "title": "Thai"}], "rating": 4.0, "coordinates": {"latitude": 37.7798690795898, "longitude": -122.229499816895}, "transactions": ["pickup"], "price": "$$", "location": {"address1": "2810 International Blvd", "address2": "", "address3": "", "city": "Oakland", "zip_code": "94601", "country": "US", "state": "CA", "display_address": ["2810 International Blvd", "Oakland, CA 94601"]}, "phone": "+15105364605", "display_phone": "(510) 536-4605", "distance": 2729.829452019034}, {"id": "Ei2_J1lhcLLfPS2ZMNW9bw", "alias": "vientian-cafe-oakland-3", "name": "Vientian Cafe", "image_url": "https://s3-media3.fl.yelpcdn.com/bphoto/7vymhdYYMq9ji7h70mqKsw/o.jpg", "is_closed": false, "url": "https://www.yelp.com/biz/vientian-cafe-oakland-3?adjust_creative=XsFzRbL2g2_AePzT00ptog&utm_campaign=yelp_api_v3&utm_medium=api_v3_business_search&utm_source=XsFzRbL2g2_AePzT00ptog", "review_count": 1063, "categories": [{"alias": "vietnamese", "title": "Vietnamese"}, {"alias": "thai", "title": "Thai"}, {"alias": "laotian", "title": "Laotian"}], "rating": 4.0, "coordinates": {"latitude": 37.7860450744629, "longitude": -122.205863952637}, "transactions": ["delivery"], "price": "$$", "location": {"address1": "3801 Allendale Ave", "address2": null, "address3": "", "city": "Oakland", "zip_code": "94619", "country": "US", "state": "CA", "display_address": ["3801 Allendale Ave", "Oakland, CA 94619"]}, "phone": "+15105352218", "display_phone": "(510) 535-2218", "distance": 4917.087204764027}, {"id": "T70Bdx9pFA8Fu4NhPQE9jg", "alias": "mekong-restaurant-oakland-2", "name": "Mekong Restaurant", "image_url": "https://s3-media2.fl.yelpcdn.com/bphoto/tmqZrMOfrCjFuKg1tWPxQQ/o.jpg", "is_closed": false, "url": "https://www.yelp.com/biz/mekong-restaurant-oakland-2?adjust_creative=XsFzRbL2g2_AePzT00ptog&utm_campaign=yelp_api_v3&utm_medium=api_v3_business_search&utm_source=XsFzRbL2g2_AePzT00ptog", "review_count": 141, "categories": [{"alias": "vietnamese", "title": "Vietnamese"}], "rating": 4.0, "coordinates": {"latitude": 37.79254, "longitude": -122.252345}, "transactions": ["delivery"], "price": "$", "location": {"address1": "807 E 12th St", "address2": "", "address3": "", "city": "Oakland", "zip_code": "94606", "country": "US", "state": "CA", "display_address": ["807 E 12th St", "Oakland, CA 94606"]}, "phone": "+15104513688", "display_phone": "(510) 451-3688", "distance": 2619.6397880915556}, {"id": "FAHEskh1qZG0kANtkiBEOA", "alias": "tasty-bowl-oakland", "name": "Tasty Bowl", "image_url": "https://s3-media2.fl.yelpcdn.com/bphoto/ha8A-BvOjUgDZ8DPoGmMBw/o.jpg", "is_closed": false, "url": "https://www.yelp.com/biz/tasty-bowl-oakland?adjust_creative=XsFzRbL2g2_AePzT00ptog&utm_campaign=yelp_api_v3&utm_medium=api_v3_business_search&utm_source=XsFzRbL2g2_AePzT00ptog", "review_count": 74, "categories": [{"alias": "asianfusion", "title": "Asian Fusion"}, {"alias": "chinese", "title": "Chinese"}, {"alias": "vietnamese", "title": "Vietnamese"}], "rating": 4.0, "coordinates": {"latitude": 37.8000947, "longitude": -122.2535148}, "transactions": ["delivery", "pickup"], "price": "$$", "location": {"address1": "205 E 18th St", "address2": null, "address3": "", "city": "Oakland", "zip_code": "94606", "country": "US", "state": "CA", "display_address": ["205 E 18th St", "Oakland, CA 94606"]}, "phone": "+15103508749", "display_phone": "(510) 350-8749", "distance": 3411.0513744048517}, {"id": "AWxbHJcPP-6lo9Bm2utAMg", "alias": "moi-eat-oakland", "name": "Moi Eat", "image_url": "https://s3-media1.fl.yelpcdn.com/bphoto/lGBp7DjtVMzOM8nHh9_L6g/o.jpg", "is_closed": false, "url": "https://www.yelp.com/biz/moi-eat-oakland?adjust_creative=XsFzRbL2g2_AePzT00ptog&utm_campaign=yelp_api_v3&utm_medium=api_v3_business_search&utm_source=XsFzRbL2g2_AePzT00ptog", "review_count": 17, "categories": [{"alias": "vietnamese", "title": "Vietnamese"}, {"alias": "popuprestaurants", "title": "Pop-Up Restaurants"}], "rating": 5.0, "coordinates": {"latitude": 37.773379, "longitude": -122.235631}, "transactions": [], "location": {"address1": "340 23rd Ave", "address2": null, "address3": "", "city": "Oakland", "zip_code": "94606", "country": "US", "state": "CA", "display_address": ["340 23rd Ave", "Oakland, CA 94606"]}, "phone": "+15105603964", "display_phone": "(510) 560-3964", "distance": 1980.2887257054429}, {"id": "VDYZKVHUv4v3UsZ3cNLObA", "alias": "pho-hoa-lao-restaurant-oakland", "name": "Pho Hoa Lao Restaurant", "image_url": "https://s3-media1.fl.yelpcdn.com/bphoto/rS-D2us_Hfl6HXldDia-dg/o.jpg", "is_closed": false, "url": "https://www.yelp.com/biz/pho-hoa-lao-restaurant-oakland?adjust_creative=XsFzRbL2g2_AePzT00ptog&utm_campaign=yelp_api_v3&utm_medium=api_v3_business_search&utm_source=XsFzRbL2g2_AePzT00ptog", "review_count": 251, "categories": [{"alias": "vietnamese", "title": "Vietnamese"}], "rating": 3.5, "coordinates": {"latitude": 37.7941627502441, "longitude": -122.251533508301}, "transactions": [], "price": "$$", "location": {"address1": "720 International Blvd", "address2": "", "address3": "", "city": "Oakland", "zip_code": "94606", "country": "US", "state": "CA", "display_address": ["720 International Blvd", "Oakland, CA 94606"]}, "phone": "+15104516888", "display_phone": "(510) 451-6888", "distance": 2812.5537701508038}, {"id": "UNE7QP_zp7oPnyqZcQkZiw", "alias": "marufuku-ramen-oakland-oakland-5", "name": "Marufuku Ramen - Oakland", "image_url": "https://s3-media3.fl.yelpcdn.com/bphoto/Us0JSHIU9lhTY3cKlOMuFg/o.jpg", "is_closed": false, "url": "https://www.yelp.com/biz/marufuku-ramen-oakland-oakland-5?adjust_creative=XsFzRbL2g2_AePzT00ptog&utm_campaign=yelp_api_v3&utm_medium=api_v3_business_search&utm_source=XsFzRbL2g2_AePzT00ptog", "review_count": 1440, "categories": [{"alias": "ramen", "title": "Ramen"}], "rating": 4.5, "coordinates": {"latitude": 37.835159813672, "longitude": -122.262654751539}, "transactions": ["delivery", "pickup"], "price": "$$", "location": {"address1": "4828 Telegraph Ave", "address2": "", "address3": null, "city": "Oakland", "zip_code": "94609", "country": "US", "state": "CA", "display_address": ["4828 Telegraph Ave", "Oakland, CA 94609"]}, "phone": "+15108232416", "display_phone": "(510) 823-2416", "distance": 7331.679236781847}, {"id": "io-aDii8qaMa40bRwSte8A", "alias": "thai-noodle-house-of-alameda-alameda-2", "name": "Thai Noodle House of Alameda", "image_url": "https://s3-media1.fl.yelpcdn.com/bphoto/fPaw5V5eh1EfN8K1xohdYg/o.jpg", "is_closed": false, "url": "https://www.yelp.com/biz/thai-noodle-house-of-alameda-alameda-2?adjust_creative=XsFzRbL2g2_AePzT00ptog&utm_campaign=yelp_api_v3&utm_medium=api_v3_business_search&utm_source=XsFzRbL2g2_AePzT00ptog", "review_count": 219, "categories": [{"alias": "thai", "title": "Thai"}, {"alias": "noodles", "title": "Noodles"}, {"alias": "salad", "title": "Salad"}], "rating": 3.5, "coordinates": {"latitude": 37.7681399873191, "longitude": -122.23930936557758}, "transactions": ["delivery"], "price": "$$", "location": {"address1": "1700 Park St", "address2": "Ste 100", "address3": "", "city": "Alameda", "zip_code": "94501", "country": "US", "state": "CA", "display_address": ["1700 Park St", "Ste 100", "Alameda, CA 94501"]}, "phone": "+15105228200", "display_phone": "(510) 522-8200", "distance": 1611.201028811733}, {"id": "LHd3X9Of8ymOE5X3_fd0eA", "alias": "moo-bong-ri-korean-restaurant-oakland", "name": "Moo Bong Ri Korean Restaurant", "image_url": "https://s3-media2.fl.yelpcdn.com/bphoto/f4YO5vOAi5H6_KN0z0Wr6w/o.jpg", "is_closed": false, "url": "https://www.yelp.com/biz/moo-bong-ri-korean-restaurant-oakland?adjust_creative=XsFzRbL2g2_AePzT00ptog&utm_campaign=yelp_api_v3&utm_medium=api_v3_business_search&utm_source=XsFzRbL2g2_AePzT00ptog", "review_count": 281, "categories": [{"alias": "korean", "title": "Korean"}, {"alias": "soup", "title": "Soup"}, {"alias": "chicken_wings", "title": "Chicken Wings"}], "rating": 4.5, "coordinates": {"latitude": 37.832094781567775, "longitude": -122.2630403}, "transactions": ["delivery", "pickup"], "price": "$$", "location": {"address1": "4390 Telegraph Ave", "address2": "Ste K", "address3": null, "city": "Oakland", "zip_code": "94609", "country": "US", "state": "CA", "display_address": ["4390 Telegraph Ave", "Ste K", "Oakland, CA 94609"]}, "phone": "+15106544606", "display_phone": "(510) 654-4606", "distance": 6993.7704111637095}, {"id": "B0Ij-d2j_cG3R46TdU-FDw", "alias": "moms-bun-mi-oakland", "name": "Mom's Bun Mi", "image_url": "https://s3-media1.fl.yelpcdn.com/bphoto/jIzfJ1eeAsIZp_XEm_7DVQ/o.jpg", "is_closed": false, "url": "https://www.yelp.com/biz/moms-bun-mi-oakland?adjust_creative=XsFzRbL2g2_AePzT00ptog&utm_campaign=yelp_api_v3&utm_medium=api_v3_business_search&utm_source=XsFzRbL2g2_AePzT00ptog", "review_count": 260, "categories": [{"alias": "vietnamese", "title": "Vietnamese"}, {"alias": "sandwiches", "title": "Sandwiches"}, {"alias": "coffee", "title": "Coffee & Tea"}], "rating": 4.0, "coordinates": {"latitude": 37.78952, "longitude": -122.2456}, "transactions": ["delivery"], "price": "$", "location": {"address1": "1400 14th Ave", "address2": "Ste A", "address3": null, "city": "Oakland", "zip_code": "94606", "country": "US", "state": "CA", "display_address": ["1400 14th Ave", "Ste A", "Oakland, CA 94606"]}, "phone": "+15106961028", "display_phone": "(510) 696-1028", "distance": 2475.7966474516957}, {"id": "sdOsk7q5mqNuLtwLB0LOIQ", "alias": "smish-smash-alameda", "name": "Smish Smash", "image_url": "https://s3-media3.fl.yelpcdn.com/bphoto/soXfkODOGSqlEIsxmyl_iQ/o.jpg", "is_closed": false, "url": "https://www.yelp.com/biz/smish-smash-alameda?adjust_creative=XsFzRbL2g2_AePzT00ptog&utm_campaign=yelp_api_v3&utm_medium=api_v3_business_search&utm_source=XsFzRbL2g2_AePzT00ptog", "review_count": 47, "categories": [{"alias": "burgers", "title": "Burgers"}, {"alias": "popuprestaurants", "title": "Pop-Up Restaurants"}], "rating": 4.5, "coordinates": {"latitude": 37.77131551124081, "longitude": -122.2781047}, "transactions": [], "location": {"address1": "630 Central Ave", "address2": null, "address3": "", "city": "Alameda", "zip_code": "94501", "country": "US", "state": "CA", "display_address": ["630 Central Ave", "Alameda, CA 94501"]}, "phone": "", "display_phone": "", "distance": 1817.6334390627794}, {"id": "gmvG10gJ0JDKds84rUgOsQ", "alias": "blind-tiger-oakland", "name": "Blind Tiger", "image_url": "https://s3-media1.fl.yelpcdn.com/bphoto/rlAL7GvghqizXhFuqsC1QA/o.jpg", "is_closed": false, "url": "https://www.yelp.com/biz/blind-tiger-oakland?adjust_creative=XsFzRbL2g2_AePzT00ptog&utm_campaign=yelp_api_v3&utm_medium=api_v3_business_search&utm_source=XsFzRbL2g2_AePzT00ptog", "review_count": 975, "categories": [{"alias": "asianfusion", "title": "Asian Fusion"}, {"alias": "cocktailbars", "title": "Cocktail Bars"}, {"alias": "tapasmallplates", "title": "Tapas/Small Plates"}], "rating": 4.0, "coordinates": {"latitude": 37.815636, "longitude": -122.26763}, "transactions": ["pickup"], "price": "$$", "location": {"address1": "2600 Telegraph Ave", "address2": "Ste B", "address3": "", "city": "Oakland", "zip_code": "94612", "country": "US", "state": "CA", "display_address": ["2600 Telegraph Ave", "Ste B", "Oakland, CA 94612"]}, "phone": "+15108999694", "display_phone": "(510) 899-9694", "distance": 5222.407907536798}, {"id": "twDk7W1Cd3OllBtShYeTag", "alias": "ques-kitchen-oakland", "name": "Que's Kitchen", "image_url": "https://s3-media1.fl.yelpcdn.com/bphoto/7A75Pg13PLq4z6cE8C0SEQ/o.jpg", "is_closed": false, "url": "https://www.yelp.com/biz/ques-kitchen-oakland?adjust_creative=XsFzRbL2g2_AePzT00ptog&utm_campaign=yelp_api_v3&utm_medium=api_v3_business_search&utm_source=XsFzRbL2g2_AePzT00ptog", "review_count": 18, "categories": [{"alias": "vietnamese", "title": "Vietnamese"}, {"alias": "fooddeliveryservices", "title": "Food Delivery Services"}, {"alias": "noodles", "title": "Noodles"}], "rating": 4.5, "coordinates": {"latitude": 37.83814, "longitude": -122.27586}, "transactions": ["delivery", "pickup"], "location": {"address1": "5325 Adeline St", "address2": null, "address3": "", "city": "Oakland", "zip_code": "94608", "country": "US", "state": "CA", "display_address": ["5325 Adeline St", "Oakland, CA 94608"]}, "phone": "+15105991279", "display_phone": "(510) 599-1279", "distance": 7817.306089484582}, {"id": "pNVkqvlC2x6BL3gCXzN6vQ", "alias": "holy-basil-pho-oakland-2", "name": "Holy Basil Pho", "image_url": "https://s3-media2.fl.yelpcdn.com/bphoto/waQr9hegQnLW0KYcQ2q2cQ/o.jpg", "is_closed": false, "url": "https://www.yelp.com/biz/holy-basil-pho-oakland-2?adjust_creative=XsFzRbL2g2_AePzT00ptog&utm_campaign=yelp_api_v3&utm_medium=api_v3_business_search&utm_source=XsFzRbL2g2_AePzT00ptog", "review_count": 194, "categories": [{"alias": "vietnamese", "title": "Vietnamese"}, {"alias": "noodles", "title": "Noodles"}, {"alias": "cocktailbars", "title": "Cocktail Bars"}], "rating": 4.0, "coordinates": {"latitude": 37.839565, "longitude": -122.251054}, "transactions": ["delivery", "pickup"], "price": "$$", "location": {"address1": "5362 College Ave", "address2": "", "address3": null, "city": "Oakland", "zip_code": "94618", "country": "US", "state": "CA", "display_address": ["5362 College Ave", "Oakland, CA 94618"]}, "phone": "+15106018818", "display_phone": "(510) 601-8818", "distance": 7828.918794769126}, {"id": "XgwnaLcXxmvfQDwsX7Gedw", "alias": "cam-huong-cafe-oakland-2", "name": "Cam Huong Cafe", "image_url": "https://s3-media2.fl.yelpcdn.com/bphoto/BJgQE9W5B-eXbs0QOzviDQ/o.jpg", "is_closed": false, "url": "https://www.yelp.com/biz/cam-huong-cafe-oakland-2?adjust_creative=XsFzRbL2g2_AePzT00ptog&utm_campaign=yelp_api_v3&utm_medium=api_v3_business_search&utm_source=XsFzRbL2g2_AePzT00ptog", "review_count": 494, "categories": [{"alias": "vietnamese", "title": "Vietnamese"}, {"alias": "delis", "title": "Delis"}, {"alias": "sandwiches", "title": "Sandwiches"}], "rating": 4.0, "coordinates": {"latitude": 37.79428, "longitude": -122.25176}, "transactions": ["delivery"], "price": "$", "location": {"address1": "702 International Blvd", "address2": "", "address3": "", "city": "Oakland", "zip_code": "94606", "country": "US", "state": "CA", "display_address": ["702 International Blvd", "Oakland, CA 94606"]}, "phone": "+15104442500", "display_phone": "(510) 444-2500", "distance": 2807.688831427203}, {"id": "34gRRbMBcR8LU2eWGpoZ9Q", "alias": "imperial-soup-\u7687\u5e1d\u6e6f-oakland-2", "name": "Imperial Soup \u7687\u5e1d\u6e6f", "image_url": "https://s3-media2.fl.yelpcdn.com/bphoto/7yI9I9HgXmWO88UVzhTZSw/o.jpg", "is_closed": false, "url": "https://www.yelp.com/biz/imperial-soup-%E7%9A%87%E5%B8%9D%E6%B9%AF-oakland-2?adjust_creative=XsFzRbL2g2_AePzT00ptog&utm_campaign=yelp_api_v3&utm_medium=api_v3_business_search&utm_source=XsFzRbL2g2_AePzT00ptog", "review_count": 181, "categories": [{"alias": "chinese", "title": "Chinese"}, {"alias": "soup", "title": "Soup"}], "rating": 4.5, "coordinates": {"latitude": 37.7990353, "longitude": -122.2716638}, "transactions": ["delivery", "pickup"], "price": "$$", "location": {"address1": "723 Webster St", "address2": "", "address3": "", "city": "Oakland", "zip_code": "94607", "country": "US", "state": "CA", "display_address": ["723 Webster St", "Oakland, CA 94607"]}, "phone": "+15108932288", "display_phone": "(510) 893-2288", "distance": 3519.5542965338677}, {"id": "IZ5ya4olYUc19-EIWRCyuQ", "alias": "azit-oakland", "name": "AZIT", "image_url": "https://s3-media2.fl.yelpcdn.com/bphoto/dZ-XIox3WTWaNX0OOLa_KQ/o.jpg", "is_closed": false, "url": "https://www.yelp.com/biz/azit-oakland?adjust_creative=XsFzRbL2g2_AePzT00ptog&utm_campaign=yelp_api_v3&utm_medium=api_v3_business_search&utm_source=XsFzRbL2g2_AePzT00ptog", "review_count": 643, "categories": [{"alias": "korean", "title": "Korean"}, {"alias": "lounges", "title": "Lounges"}, {"alias": "asianfusion", "title": "Asian Fusion"}], "rating": 4.5, "coordinates": {"latitude": 37.832103729248, "longitude": -122.263084411621}, "transactions": ["delivery", "pickup"], "price": "$$", "location": {"address1": "4390 Telegraph Ave", "address2": "Ste A", "address3": "", "city": "Oakland", "zip_code": "94609", "country": "US", "state": "CA", "display_address": ["4390 Telegraph Ave", "Ste A", "Oakland, CA 94609"]}, "phone": "+15102509988", "display_phone": "(510) 250-9988", "distance": 6990.0760439874575}, {"id": "xrfNNIUAl2588mwyRtvH-w", "alias": "golden-lotus-vegan-restaurant-oakland", "name": "Golden Lotus Vegan Restaurant", "image_url": "https://s3-media1.fl.yelpcdn.com/bphoto/zMca0ARV2trIyazPwztVOA/o.jpg", "is_closed": false, "url": "https://www.yelp.com/biz/golden-lotus-vegan-restaurant-oakland?adjust_creative=XsFzRbL2g2_AePzT00ptog&utm_campaign=yelp_api_v3&utm_medium=api_v3_business_search&utm_source=XsFzRbL2g2_AePzT00ptog", "review_count": 1159, "categories": [{"alias": "vegetarian", "title": "Vegetarian"}, {"alias": "vietnamese", "title": "Vietnamese"}, {"alias": "vegan", "title": "Vegan"}], "rating": 4.0, "coordinates": {"latitude": 37.80348, "longitude": -122.2705}, "transactions": ["delivery"], "price": "$$", "location": {"address1": "1301 Franklin St", "address2": "", "address3": "", "city": "Oakland", "zip_code": "94612", "country": "US", "state": "CA", "display_address": ["1301 Franklin St", "Oakland, CA 94612"]}, "phone": "+15108930383", "display_phone": "(510) 893-0383", "distance": 3948.269429120504}, {"id": "Jlt5w5ItA8ugiXif2VVQ5g", "alias": "champa-garden-oakland", "name": "Champa Garden", "image_url": "https://s3-media1.fl.yelpcdn.com/bphoto/sAclWPVcRqkoQTXUlnjZXw/o.jpg", "is_closed": false, "url": "https://www.yelp.com/biz/champa-garden-oakland?adjust_creative=XsFzRbL2g2_AePzT00ptog&utm_campaign=yelp_api_v3&utm_medium=api_v3_business_search&utm_source=XsFzRbL2g2_AePzT00ptog", "review_count": 2130, "categories": [{"alias": "thai", "title": "Thai"}, {"alias": "laotian", "title": "Laotian"}], "rating": 4.0, "coordinates": {"latitude": 37.7981399, "longitude": -122.2446}, "transactions": ["delivery", "pickup"], "price": "$$", "location": {"address1": "2102 8th Ave", "address2": "", "address3": "", "city": "Oakland", "zip_code": "94606", "country": "US", "state": "CA", "display_address": ["2102 8th Ave", "Oakland, CA 94606"]}, "phone": "+15102388819", "display_phone": "(510) 238-8819", "distance": 3397.157141143942}, {"id": "BmDHbBWKESB6d3ZFRT5y_Q", "alias": "chai-thai-noodles-oakland-oakland", "name": "Chai Thai Noodles - Oakland", "image_url": "https://s3-media1.fl.yelpcdn.com/bphoto/k-2CxaSiGsuYrzccnh_1_A/o.jpg", "is_closed": false, "url": "https://www.yelp.com/biz/chai-thai-noodles-oakland-oakland?adjust_creative=XsFzRbL2g2_AePzT00ptog&utm_campaign=yelp_api_v3&utm_medium=api_v3_business_search&utm_source=XsFzRbL2g2_AePzT00ptog", "review_count": 948, "categories": [{"alias": "thai", "title": "Thai"}, {"alias": "laotian", "title": "Laotian"}, {"alias": "noodles", "title": "Noodles"}], "rating": 4.0, "coordinates": {"latitude": 37.794959, "longitude": -122.253372}, "transactions": ["delivery", "pickup"], "price": "$$", "location": {"address1": "545 International Blvd", "address2": "Ste B", "address3": "", "city": "Oakland", "zip_code": "94606", "country": "US", "state": "CA", "display_address": ["545 International Blvd", "Ste B", "Oakland, CA 94606"]}, "phone": "+15108322500", "display_phone": "(510) 832-2500", "distance": 2871.8307875653545}, {"id": "QTlzHTGTPO_2l0ImaeYuzA", "alias": "izza-oakland-2", "name": "Izza", "image_url": "https://s3-media4.fl.yelpcdn.com/bphoto/U-yJ3SEjrajifIlcgsdqAg/o.jpg", "is_closed": false, "url": "https://www.yelp.com/biz/izza-oakland-2?adjust_creative=XsFzRbL2g2_AePzT00ptog&utm_campaign=yelp_api_v3&utm_medium=api_v3_business_search&utm_source=XsFzRbL2g2_AePzT00ptog", "review_count": 307, "categories": [{"alias": "izakaya", "title": "Izakaya"}, {"alias": "ramen", "title": "Ramen"}, {"alias": "japacurry", "title": "Japanese Curry"}], "rating": 4.0, "coordinates": {"latitude": 37.832543, "longitude": -122.263848}, "transactions": ["delivery", "restaurant_reservation", "pickup"], "price": "$$", "location": {"address1": "4419 Telegraph Ave", "address2": null, "address3": "", "city": "Oakland", "zip_code": "94609", "country": "US", "state": "CA", "display_address": ["4419 Telegraph Ave", "Oakland, CA 94609"]}, "phone": "+15106077361", "display_phone": "(510) 607-7361", "distance": 7047.211766801557}, {"id": "FsMdHnX1Bb42bBX-308K_g", "alias": "le-cheval-oakland", "name": "Le Cheval", "image_url": "https://s3-media1.fl.yelpcdn.com/bphoto/sYJ1kFj5ymVE_ldddSZinw/o.jpg", "is_closed": false, "url": "https://www.yelp.com/biz/le-cheval-oakland?adjust_creative=XsFzRbL2g2_AePzT00ptog&utm_campaign=yelp_api_v3&utm_medium=api_v3_business_search&utm_source=XsFzRbL2g2_AePzT00ptog", "review_count": 1444, "categories": [{"alias": "vietnamese", "title": "Vietnamese"}, {"alias": "asianfusion", "title": "Asian Fusion"}], "rating": 3.5, "coordinates": {"latitude": 37.802757688759, "longitude": -122.275388805179}, "transactions": ["delivery", "restaurant_reservation"], "price": "$$", "location": {"address1": "1007 Clay St", "address2": "", "address3": "", "city": "Oakland", "zip_code": "94607", "country": "US", "state": "CA", "display_address": ["1007 Clay St", "Oakland, CA 94607"]}, "phone": "+15107638495", "display_phone": "(510) 763-8495", "distance": 4031.4497312350563}, {"id": "GDCsQuWKwgtoa_n2-QpSFQ", "alias": "bucket-o-crawfish-alameda-alameda-3", "name": "Bucket O' Crawfish- Alameda", "image_url": "https://s3-media4.fl.yelpcdn.com/bphoto/KTO7OEcN50OFnE92n6o9_g/o.jpg", "is_closed": false, "url": "https://www.yelp.com/biz/bucket-o-crawfish-alameda-alameda-3?adjust_creative=XsFzRbL2g2_AePzT00ptog&utm_campaign=yelp_api_v3&utm_medium=api_v3_business_search&utm_source=XsFzRbL2g2_AePzT00ptog", "review_count": 240, "categories": [{"alias": "cajun", "title": "Cajun/Creole"}, {"alias": "seafood", "title": "Seafood"}], "rating": 3.5, "coordinates": {"latitude": 37.778843, "longitude": -122.276938}, "transactions": ["delivery"], "price": "$$", "location": {"address1": "1919 Webster St", "address2": "", "address3": null, "city": "Alameda", "zip_code": "94501", "country": "US", "state": "CA", "display_address": ["1919 Webster St", "Alameda, CA 94501"]}, "phone": "+15102638578", "display_phone": "(510) 263-8578", "distance": 2002.7570554095494}, {"id": "kfRwWdRTJf1cnOQF-ofWUg", "alias": "hang-ten-alameda-alameda", "name": "Hang Ten - Alameda", "image_url": "https://s3-media2.fl.yelpcdn.com/bphoto/hak9VTVGb_ClzWddoKTLDQ/o.jpg", "is_closed": false, "url": "https://www.yelp.com/biz/hang-ten-alameda-alameda?adjust_creative=XsFzRbL2g2_AePzT00ptog&utm_campaign=yelp_api_v3&utm_medium=api_v3_business_search&utm_source=XsFzRbL2g2_AePzT00ptog", "review_count": 1228, "categories": [{"alias": "cajun", "title": "Cajun/Creole"}, {"alias": "hawaiian", "title": "Hawaiian"}, {"alias": "seafood", "title": "Seafood"}], "rating": 4.0, "coordinates": {"latitude": 37.765823925465554, "longitude": -122.24261227116394}, "transactions": ["pickup"], "price": "$$", "location": {"address1": "2315 Santa Clara Ave", "address2": null, "address3": "", "city": "Alameda", "zip_code": "94501", "country": "US", "state": "CA", "display_address": ["2315 Santa Clara Ave", "Alameda, CA 94501"]}, "phone": "+15102638688", "display_phone": "(510) 263-8688", "distance": 1372.3921581357104}, {"id": "jGib3ckV1RY8cm20xeSRqw", "alias": "sushi-house-alameda", "name": "Sushi House", "image_url": "https://s3-media3.fl.yelpcdn.com/bphoto/eQaBEEk6bU2GKhwz-9iXaQ/o.jpg", "is_closed": false, "url": "https://www.yelp.com/biz/sushi-house-alameda?adjust_creative=XsFzRbL2g2_AePzT00ptog&utm_campaign=yelp_api_v3&utm_medium=api_v3_business_search&utm_source=XsFzRbL2g2_AePzT00ptog", "review_count": 3607, "categories": [{"alias": "sushi", "title": "Sushi Bars"}, {"alias": "japanese", "title": "Japanese"}], "rating": 3.0, "coordinates": {"latitude": 37.7547187805176, "longitude": -122.250495910645}, "transactions": ["delivery"], "price": "$$", "location": {"address1": "2375 Shoreline Dr", "address2": "", "address3": "", "city": "Alameda", "zip_code": "94501", "country": "US", "state": "CA", "display_address": ["2375 Shoreline Dr", "Alameda, CA 94501"]}, "phone": "+15108650999", "display_phone": "(510) 865-0999", "distance": 1736.4464366881189}, {"id": "p5TfqFI1lwcuhbI9DrXUTw", "alias": "sushi-and-more-alameda", "name": "Sushi & More", "image_url": "https://s3-media1.fl.yelpcdn.com/bphoto/8q5cm_v91HZej6vDZw2RoQ/o.jpg", "is_closed": false, "url": "https://www.yelp.com/biz/sushi-and-more-alameda?adjust_creative=XsFzRbL2g2_AePzT00ptog&utm_campaign=yelp_api_v3&utm_medium=api_v3_business_search&utm_source=XsFzRbL2g2_AePzT00ptog", "review_count": 100, "categories": [{"alias": "sushi", "title": "Sushi Bars"}, {"alias": "bubbletea", "title": "Bubble Tea"}, {"alias": "japanese", "title": "Japanese"}], "rating": 4.5, "coordinates": {"latitude": 37.76209, "longitude": -122.24477}, "transactions": ["delivery", "pickup"], "price": "$$", "location": {"address1": "1245 Park St", "address2": null, "address3": "", "city": "Alameda", "zip_code": "94501", "country": "US", "state": "CA", "display_address": ["1245 Park St", "Alameda, CA 94501"]}, "phone": "+15102638171", "display_phone": "(510) 263-8171", "distance": 1380.7912272181807}, {"id": "DceTpSF9RJ9PBvfX-_EImQ", "alias": "shandong-restaurant-oakland", "name": "Shandong Restaurant", "image_url": "https://s3-media1.fl.yelpcdn.com/bphoto/DKHAlj5Mpqs1HjZt36XsDg/o.jpg", "is_closed": false, "url": "https://www.yelp.com/biz/shandong-restaurant-oakland?adjust_creative=XsFzRbL2g2_AePzT00ptog&utm_campaign=yelp_api_v3&utm_medium=api_v3_business_search&utm_source=XsFzRbL2g2_AePzT00ptog", "review_count": 3308, "categories": [{"alias": "chinese", "title": "Chinese"}, {"alias": "seafood", "title": "Seafood"}, {"alias": "noodles", "title": "Noodles"}], "rating": 4.0, "coordinates": {"latitude": 37.800607171031, "longitude": -122.26986193448}, "transactions": ["delivery", "pickup"], "price": "$$", "location": {"address1": "328 10th St", "address2": "Ste 101", "address3": "", "city": "Oakland", "zip_code": "94607", "country": "US", "state": "CA", "display_address": ["328 10th St", "Ste 101", "Oakland, CA 94607"]}, "phone": "+15108392299", "display_phone": "(510) 839-2299", "distance": 3639.8316166153477}, {"id": "UC8lpcaAtFIK-Ar2vmSiwQ", "alias": "noodle-theory-oakland", "name": "Noodle Theory", "image_url": "https://s3-media3.fl.yelpcdn.com/bphoto/frmOkJNrK1EDsaw1Iv3uzw/o.jpg", "is_closed": false, "url": "https://www.yelp.com/biz/noodle-theory-oakland?adjust_creative=XsFzRbL2g2_AePzT00ptog&utm_campaign=yelp_api_v3&utm_medium=api_v3_business_search&utm_source=XsFzRbL2g2_AePzT00ptog", "review_count": 1229, "categories": [{"alias": "ramen", "title": "Ramen"}, {"alias": "noodles", "title": "Noodles"}, {"alias": "panasian", "title": "Pan Asian"}], "rating": 4.0, "coordinates": {"latitude": 37.8492607, "longitude": -122.2525755}, "transactions": ["delivery"], "price": "$$", "location": {"address1": "6099 Claremont Ave", "address2": "", "address3": "", "city": "Oakland", "zip_code": "94618", "country": "US", "state": "CA", "display_address": ["6099 Claremont Ave", "Oakland, CA 94618"]}, "phone": "+15105956988", "display_phone": "(510) 595-6988", "distance": 8896.885399039395}, {"id": "R7K7R5Qfv2C0mdG1n9bPug", "alias": "co-nam-oakland", "name": "Co Nam", "image_url": "https://s3-media4.fl.yelpcdn.com/bphoto/_1_r2GvlFC2okBPbnpJcQA/o.jpg", "is_closed": false, "url": "https://www.yelp.com/biz/co-nam-oakland?adjust_creative=XsFzRbL2g2_AePzT00ptog&utm_campaign=yelp_api_v3&utm_medium=api_v3_business_search&utm_source=XsFzRbL2g2_AePzT00ptog", "review_count": 188, "categories": [{"alias": "vietnamese", "title": "Vietnamese"}, {"alias": "tapas", "title": "Tapas Bars"}, {"alias": "cocktailbars", "title": "Cocktail Bars"}], "rating": 3.5, "coordinates": {"latitude": 37.82894163541966, "longitude": -122.264284}, "transactions": ["delivery"], "price": "$$", "location": {"address1": "3936 Telegraph Ave", "address2": "", "address3": null, "city": "Oakland", "zip_code": "94609", "country": "US", "state": "CA", "display_address": ["3936 Telegraph Ave", "Oakland, CA 94609"]}, "phone": "+15108911232", "display_phone": "(510) 891-1232", "distance": 6652.817445930233}, {"id": "Wa3mj3Vo4ixhpOpAb7_NVQ", "alias": "taiwan-bento-oakland-4", "name": "Taiwan Bento", "image_url": "https://s3-media2.fl.yelpcdn.com/bphoto/Jf9IC6Zp2F_vJyk_r00Pxw/o.jpg", "is_closed": false, "url": "https://www.yelp.com/biz/taiwan-bento-oakland-4?adjust_creative=XsFzRbL2g2_AePzT00ptog&utm_campaign=yelp_api_v3&utm_medium=api_v3_business_search&utm_source=XsFzRbL2g2_AePzT00ptog", "review_count": 506, "categories": [{"alias": "taiwanese", "title": "Taiwanese"}, {"alias": "bubbletea", "title": "Bubble Tea"}, {"alias": "noodles", "title": "Noodles"}], "rating": 4.0, "coordinates": {"latitude": 37.81097, "longitude": -122.26651}, "transactions": ["delivery", "pickup"], "price": "$$", "location": {"address1": "412 22nd St", "address2": null, "address3": "", "city": "Oakland", "zip_code": "94612", "country": "US", "state": "CA", "display_address": ["412 22nd St", "Oakland, CA 94612"]}, "phone": "+15102509858", "display_phone": "(510) 250-9858", "distance": 4692.074596575498}, {"id": "fakmD43zMUXgxNaTmz1M3A", "alias": "ark-chinese-restaurant-alameda-2", "name": "Ark Chinese Restaurant", "image_url": "https://s3-media2.fl.yelpcdn.com/bphoto/ohnw-YvNTvltR9PZSOIaBg/o.jpg", "is_closed": false, "url": "https://www.yelp.com/biz/ark-chinese-restaurant-alameda-2?adjust_creative=XsFzRbL2g2_AePzT00ptog&utm_campaign=yelp_api_v3&utm_medium=api_v3_business_search&utm_source=XsFzRbL2g2_AePzT00ptog", "review_count": 590, "categories": [{"alias": "chinese", "title": "Chinese"}, {"alias": "noodles", "title": "Noodles"}], "rating": 3.5, "coordinates": {"latitude": 37.76454, "longitude": -122.24277}, "transactions": ["pickup"], "price": "$$", "location": {"address1": "1405 Park St", "address2": null, "address3": "", "city": "Alameda", "zip_code": "94501", "country": "US", "state": "CA", "display_address": ["1405 Park St", "Alameda, CA 94501"]}, "phone": "+15105216862", "display_phone": "(510) 521-6862", "distance": 1394.045876551854}, {"id": "QBZi_SD3o7PtZDOIakx9Ww", "alias": "lotus-leaf-san-leandro", "name": "Lotus Leaf", "image_url": "https://s3-media2.fl.yelpcdn.com/bphoto/LHk9C6mHFHE0emIBIF-Giw/o.jpg", "is_closed": false, "url": "https://www.yelp.com/biz/lotus-leaf-san-leandro?adjust_creative=XsFzRbL2g2_AePzT00ptog&utm_campaign=yelp_api_v3&utm_medium=api_v3_business_search&utm_source=XsFzRbL2g2_AePzT00ptog", "review_count": 487, "categories": [{"alias": "vietnamese", "title": "Vietnamese"}], "rating": 3.5, "coordinates": {"latitude": 37.721561, "longitude": -122.155398}, "transactions": ["delivery", "pickup"], "price": "$$", "location": {"address1": "277 Parrott St", "address2": "", "address3": "", "city": "San Leandro", "zip_code": "94577", "country": "US", "state": "CA", "display_address": ["277 Parrott St", "San Leandro, CA 94577"]}, "phone": "+15106147799", "display_phone": "(510) 614-7799", "distance": 10437.787049558643}, {"id": "-p4wRS9OtmhaVHVrSwc8tw", "alias": "saigon2-pho-and-baguette-vietnamese-cuisine-san-leandro", "name": "Saigon2 Pho & Baguette Vietnamese Cuisine", "image_url": "https://s3-media1.fl.yelpcdn.com/bphoto/XM2WOHDinNUF67GvUte78Q/o.jpg", "is_closed": false, "url": "https://www.yelp.com/biz/saigon2-pho-and-baguette-vietnamese-cuisine-san-leandro?adjust_creative=XsFzRbL2g2_AePzT00ptog&utm_campaign=yelp_api_v3&utm_medium=api_v3_business_search&utm_source=XsFzRbL2g2_AePzT00ptog", "review_count": 252, "categories": [{"alias": "vietnamese", "title": "Vietnamese"}], "rating": 3.5, "coordinates": {"latitude": 37.705699, "longitude": -122.17913}, "transactions": ["delivery"], "price": "$$", "location": {"address1": "2113 Marina Blvd", "address2": "", "address3": "", "city": "San Leandro", "zip_code": "94577", "country": "US", "state": "CA", "display_address": ["2113 Marina Blvd", "San Leandro, CA 94577"]}, "phone": "+15108959849", "display_phone": "(510) 895-9849", "distance": 9886.769728378915}, {"id": "JNUnkShePKmei6f3Yx74uA", "alias": "tu-tai-3-oakland-2", "name": "Tu Tai 3", "image_url": "https://s3-media3.fl.yelpcdn.com/bphoto/Zn0RC94dyGGxmhpDbPtkJA/o.jpg", "is_closed": false, "url": "https://www.yelp.com/biz/tu-tai-3-oakland-2?adjust_creative=XsFzRbL2g2_AePzT00ptog&utm_campaign=yelp_api_v3&utm_medium=api_v3_business_search&utm_source=XsFzRbL2g2_AePzT00ptog", "review_count": 128, "categories": [{"alias": "vietnamese", "title": "Vietnamese"}], "rating": 3.5, "coordinates": {"latitude": 37.8003838, "longitude": -122.2167919}, "transactions": ["delivery"], "price": "$", "location": {"address1": "2141 MacArthur Blvd", "address2": "", "address3": "", "city": "Oakland", "zip_code": "94602", "country": "US", "state": "CA", "display_address": ["2141 MacArthur Blvd", "Oakland, CA 94602"]}, "phone": "+15104826188", "display_phone": "(510) 482-6188", "distance": 4995.95336373231}, {"id": "MSCdge818J5_UjOENeLw4Q", "alias": "the-saap-avenue-oakland-4", "name": "The Saap Avenue", "image_url": "https://s3-media2.fl.yelpcdn.com/bphoto/I8aJqc0VT8y3dbX8KHNfhQ/o.jpg", "is_closed": false, "url": "https://www.yelp.com/biz/the-saap-avenue-oakland-4?adjust_creative=XsFzRbL2g2_AePzT00ptog&utm_campaign=yelp_api_v3&utm_medium=api_v3_business_search&utm_source=XsFzRbL2g2_AePzT00ptog", "review_count": 226, "categories": [{"alias": "laotian", "title": "Laotian"}, {"alias": "cocktailbars", "title": "Cocktail Bars"}, {"alias": "salad", "title": "Salad"}], "rating": 4.5, "coordinates": {"latitude": 37.83019, "longitude": -122.24761}, "transactions": ["pickup", "delivery"], "price": "$$", "location": {"address1": "4395 Piedmont Ave", "address2": "Ste 2", "address3": "", "city": "Oakland", "zip_code": "94611", "country": "US", "state": "CA", "display_address": ["4395 Piedmont Ave", "Ste 2", "Oakland, CA 94611"]}, "phone": "+15103616498", "display_phone": "(510) 361-6498", "distance": 6821.899659393488}, {"id": "6q0b_n7d-IFVhwAfE1oGmg", "alias": "pla-daek-piedmont", "name": "Pla Daek", "image_url": "https://s3-media4.fl.yelpcdn.com/bphoto/kscvuvGAlKtfIuP8zgmyXA/o.jpg", "is_closed": false, "url": "https://www.yelp.com/biz/pla-daek-piedmont?adjust_creative=XsFzRbL2g2_AePzT00ptog&utm_campaign=yelp_api_v3&utm_medium=api_v3_business_search&utm_source=XsFzRbL2g2_AePzT00ptog", "review_count": 114, "categories": [{"alias": "thai", "title": "Thai"}], "rating": 4.5, "coordinates": {"latitude": 37.82695822092336, "longitude": -122.25192829072134}, "transactions": ["delivery", "pickup", "restaurant_reservation"], "price": "$$", "location": {"address1": "4133 Piedmont Ave Oakland", "address2": null, "address3": "", "city": "Piedmont", "zip_code": "94611", "country": "US", "state": "CA", "display_address": ["4133 Piedmont Ave Oakland", "Piedmont, CA 94611"]}, "phone": "+15106588491", "display_phone": "(510) 658-8491", "distance": 6425.304099991517}, {"id": "gcovK67rSz5M7q5U-vjvHg", "alias": "fresh-and-best-cafe-2-oakland", "name": "Fresh and Best Cafe 2", "image_url": "https://s3-media3.fl.yelpcdn.com/bphoto/AFECHC8_JvzfHeyd_wJe6g/o.jpg", "is_closed": false, "url": "https://www.yelp.com/biz/fresh-and-best-cafe-2-oakland?adjust_creative=XsFzRbL2g2_AePzT00ptog&utm_campaign=yelp_api_v3&utm_medium=api_v3_business_search&utm_source=XsFzRbL2g2_AePzT00ptog", "review_count": 176, "categories": [{"alias": "vietnamese", "title": "Vietnamese"}, {"alias": "juicebars", "title": "Juice Bars & Smoothies"}, {"alias": "coffee", "title": "Coffee & Tea"}], "rating": 4.5, "coordinates": {"latitude": 37.8028, "longitude": -122.26575}, "transactions": ["delivery", "pickup"], "price": "$", "location": {"address1": "1428 Alice St", "address2": "", "address3": "", "city": "Oakland", "zip_code": "94612", "country": "US", "state": "CA", "display_address": ["1428 Alice St", "Oakland, CA 94612"]}, "phone": "+15108367942", "display_phone": "(510) 836-7942", "distance": 3787.717123148664}, {"id": "Wgq1EQry0k7XRFOpZYxQiw", "alias": "seoul-gomtang-oakland", "name": "Seoul Gomtang", "image_url": "https://s3-media2.fl.yelpcdn.com/bphoto/UEo0gr9uj1X9CFBxo5KYVA/o.jpg", "is_closed": false, "url": "https://www.yelp.com/biz/seoul-gomtang-oakland?adjust_creative=XsFzRbL2g2_AePzT00ptog&utm_campaign=yelp_api_v3&utm_medium=api_v3_business_search&utm_source=XsFzRbL2g2_AePzT00ptog", "review_count": 588, "categories": [{"alias": "korean", "title": "Korean"}], "rating": 4.0, "coordinates": {"latitude": 37.826827, "longitude": -122.265328}, "transactions": ["pickup", "delivery"], "price": "$$", "location": {"address1": "3801 Telegraph Ave", "address2": null, "address3": "", "city": "Oakland", "zip_code": "94609", "country": "US", "state": "CA", "display_address": ["3801 Telegraph Ave", "Oakland, CA 94609"]}, "phone": "+15105979989", "display_phone": "(510) 597-9989", "distance": 6426.951452207647}, {"id": "dSHxyFl0hLK-nkkzXduYqw", "alias": "monster-pho-2-emeryville", "name": "Monster Pho 2", "image_url": "https://s3-media4.fl.yelpcdn.com/bphoto/zIjuoltmsqbrD4V-pUH1JA/o.jpg", "is_closed": false, "url": "https://www.yelp.com/biz/monster-pho-2-emeryville?adjust_creative=XsFzRbL2g2_AePzT00ptog&utm_campaign=yelp_api_v3&utm_medium=api_v3_business_search&utm_source=XsFzRbL2g2_AePzT00ptog", "review_count": 427, "categories": [{"alias": "vietnamese", "title": "Vietnamese"}, {"alias": "wine_bars", "title": "Wine Bars"}, {"alias": "noodles", "title": "Noodles"}], "rating": 4.5, "coordinates": {"latitude": 37.8296863, "longitude": -122.2788192}, "transactions": ["delivery"], "price": "$$", "location": {"address1": "3900 Adeline St", "address2": "", "address3": "", "city": "Emeryville", "zip_code": "94608", "country": "US", "state": "CA", "display_address": ["3900 Adeline St", "Emeryville, CA 94608"]}, "phone": "+15103508531", "display_phone": "(510) 350-8531", "distance": 6964.235019514766}, {"id": "6XBdBPUMTGqE8NLPDjiIQw", "alias": "r-noodles-oakland", "name": "R' Noodles", "image_url": "https://s3-media2.fl.yelpcdn.com/bphoto/ZciHKs06k2tMs4duweFXWA/o.jpg", "is_closed": false, "url": "https://www.yelp.com/biz/r-noodles-oakland?adjust_creative=XsFzRbL2g2_AePzT00ptog&utm_campaign=yelp_api_v3&utm_medium=api_v3_business_search&utm_source=XsFzRbL2g2_AePzT00ptog", "review_count": 60, "categories": [{"alias": "chinese", "title": "Chinese"}], "rating": 4.0, "coordinates": {"latitude": 37.800185, "longitude": -122.2705738}, "transactions": ["delivery", "pickup"], "price": "$$", "location": {"address1": "930 Webster St", "address2": null, "address3": "", "city": "Oakland", "zip_code": "94607", "country": "US", "state": "CA", "display_address": ["930 Webster St", "Oakland, CA 94607"]}, "phone": "+15102509707", "display_phone": "(510) 250-9707", "distance": 3626.1571601636338}, {"id": "1vJLE77VZw0dukHd5bw35A", "alias": "daughter-thai-kitchen-oakland", "name": "Daughter Thai Kitchen", "image_url": "https://s3-media3.fl.yelpcdn.com/bphoto/rxUsK39DoiQmzo6ArhOKZw/o.jpg", "is_closed": false, "url": "https://www.yelp.com/biz/daughter-thai-kitchen-oakland?adjust_creative=XsFzRbL2g2_AePzT00ptog&utm_campaign=yelp_api_v3&utm_medium=api_v3_business_search&utm_source=XsFzRbL2g2_AePzT00ptog", "review_count": 1343, "categories": [{"alias": "thai", "title": "Thai"}, {"alias": "cocktailbars", "title": "Cocktail Bars"}], "rating": 4.0, "coordinates": {"latitude": 37.82693496, "longitude": -122.21044895}, "transactions": ["delivery", "restaurant_reservation"], "price": "$$", "location": {"address1": "6118 Medau Pl", "address2": "", "address3": null, "city": "Oakland", "zip_code": "94611", "country": "US", "state": "CA", "display_address": ["6118 Medau Pl", "Oakland, CA 94611"]}, "phone": "+15108232354", "display_phone": "(510) 823-2354", "distance": 7625.672253941101}, {"id": "BbBedYNq3dmYPNUxH60U1A", "alias": "ten-seconds-yunnan-rice-noodle-san-leandro", "name": "Ten Seconds Yunnan Rice Noodle", "image_url": "https://s3-media3.fl.yelpcdn.com/bphoto/GZQuYzm5M__FCYDKTNh0qA/o.jpg", "is_closed": false, "url": "https://www.yelp.com/biz/ten-seconds-yunnan-rice-noodle-san-leandro?adjust_creative=XsFzRbL2g2_AePzT00ptog&utm_campaign=yelp_api_v3&utm_medium=api_v3_business_search&utm_source=XsFzRbL2g2_AePzT00ptog", "review_count": 201, "categories": [{"alias": "chinese", "title": "Chinese"}, {"alias": "noodles", "title": "Noodles"}, {"alias": "bubbletea", "title": "Bubble Tea"}], "rating": 4.0, "coordinates": {"latitude": 37.72401640131028, "longitude": -122.15529735437458}, "transactions": ["delivery"], "price": "$$", "location": {"address1": "145 W Joaquin Ave", "address2": null, "address3": "", "city": "San Leandro", "zip_code": "94577", "country": "US", "state": "CA", "display_address": ["145 W Joaquin Ave", "San Leandro, CA 94577"]}, "phone": "+15106181768", "display_phone": "(510) 618-1768", "distance": 10309.067561611848}, {"id": "7M9Z8itX0FH3324dhxLJZA", "alias": "spices-3-oakland-2", "name": "Spices 3", "image_url": "https://s3-media3.fl.yelpcdn.com/bphoto/eWOkkgG-wFyxBx4Xc4nNKw/o.jpg", "is_closed": false, "url": "https://www.yelp.com/biz/spices-3-oakland-2?adjust_creative=XsFzRbL2g2_AePzT00ptog&utm_campaign=yelp_api_v3&utm_medium=api_v3_business_search&utm_source=XsFzRbL2g2_AePzT00ptog", "review_count": 1046, "categories": [{"alias": "szechuan", "title": "Szechuan"}], "rating": 4.0, "coordinates": {"latitude": 37.8023133, "longitude": -122.2700463}, "transactions": ["delivery", "pickup"], "price": "$$", "location": {"address1": "370 12th St", "address2": null, "address3": "", "city": "Oakland", "zip_code": "94607", "country": "US", "state": "CA", "display_address": ["370 12th St", "Oakland, CA 94607"]}, "phone": "+15106258889", "display_phone": "(510) 625-8889", "distance": 3826.025769503397}, {"id": "NQVqMCoY-Krhw8DY4UnJKw", "alias": "ohgane-korean-bbq-oakland-3", "name": "Ohgane Korean BBQ", "image_url": "https://s3-media4.fl.yelpcdn.com/bphoto/SThvsH-vqyk76dpyhyEnRA/o.jpg", "is_closed": false, "url": "https://www.yelp.com/biz/ohgane-korean-bbq-oakland-3?adjust_creative=XsFzRbL2g2_AePzT00ptog&utm_campaign=yelp_api_v3&utm_medium=api_v3_business_search&utm_source=XsFzRbL2g2_AePzT00ptog", "review_count": 2281, "categories": [{"alias": "korean", "title": "Korean"}, {"alias": "bbq", "title": "Barbeque"}], "rating": 4.0, "coordinates": {"latitude": 37.82721, "longitude": -122.25735}, "transactions": ["pickup"], "price": "$$$", "location": {"address1": "3915 Broadway", "address2": null, "address3": "", "city": "Oakland", "zip_code": "94611", "country": "US", "state": "CA", "display_address": ["3915 Broadway", "Oakland, CA 94611"]}, "phone": "+15105948300", "display_phone": "(510) 594-8300", "distance": 6445.697271200459}, {"id": "_mFhusiDiacM8w-7Hea5bg", "alias": "jong-ga-house-oakland", "name": "Jong Ga House", "image_url": "https://s3-media3.fl.yelpcdn.com/bphoto/krIokJ-WUcFXSER1QBgXIw/o.jpg", "is_closed": false, "url": "https://www.yelp.com/biz/jong-ga-house-oakland?adjust_creative=XsFzRbL2g2_AePzT00ptog&utm_campaign=yelp_api_v3&utm_medium=api_v3_business_search&utm_source=XsFzRbL2g2_AePzT00ptog", "review_count": 2091, "categories": [{"alias": "korean", "title": "Korean"}, {"alias": "bbq", "title": "Barbeque"}, {"alias": "hotpot", "title": "Hot Pot"}], "rating": 4.0, "coordinates": {"latitude": 37.8089712, "longitude": -122.2547232}, "transactions": ["delivery", "pickup", "restaurant_reservation"], "price": "$$", "location": {"address1": "372 Grand Ave", "address2": "", "address3": "", "city": "Oakland", "zip_code": "94610", "country": "US", "state": "CA", "display_address": ["372 Grand Ave", "Oakland, CA 94610"]}, "phone": "+15104447658", "display_phone": "(510) 444-7658", "distance": 4430.1649747534}, {"id": "4uzxXWe2vrOjuPJqMJJRng", "alias": "gum-kuo-restaurant-oakland", "name": "Gum Kuo Restaurant", "image_url": "https://s3-media4.fl.yelpcdn.com/bphoto/epok1wY1DsYDxUHvU30kVw/o.jpg", "is_closed": false, "url": "https://www.yelp.com/biz/gum-kuo-restaurant-oakland?adjust_creative=XsFzRbL2g2_AePzT00ptog&utm_campaign=yelp_api_v3&utm_medium=api_v3_business_search&utm_source=XsFzRbL2g2_AePzT00ptog", "review_count": 1055, "categories": [{"alias": "cantonese", "title": "Cantonese"}], "rating": 4.0, "coordinates": {"latitude": 37.8004455566406, "longitude": -122.271835327148}, "transactions": ["delivery"], "price": "$", "location": {"address1": "388 9th St", "address2": "Ste 182", "address3": "", "city": "Oakland", "zip_code": "94607", "country": "US", "state": "CA", "display_address": ["388 9th St", "Ste 182", "Oakland, CA 94607"]}, "phone": "+15102681288", "display_phone": "(510) 268-1288", "distance": 3697.207174626498}, {"id": "DGUuAmUWDf0IuooEdPs1XA", "alias": "momo-ramen-oakland-4", "name": "Momo Ramen", "image_url": "https://s3-media3.fl.yelpcdn.com/bphoto/Ad3DqrVgy_TM_xumOZaQbw/o.jpg", "is_closed": false, "url": "https://www.yelp.com/biz/momo-ramen-oakland-4?adjust_creative=XsFzRbL2g2_AePzT00ptog&utm_campaign=yelp_api_v3&utm_medium=api_v3_business_search&utm_source=XsFzRbL2g2_AePzT00ptog", "review_count": 160, "categories": [{"alias": "ramen", "title": "Ramen"}], "rating": 4.0, "coordinates": {"latitude": 37.8494976, "longitude": -122.252027}, "transactions": ["pickup", "delivery"], "price": "$$", "location": {"address1": "6200 Claremont Ave", "address2": null, "address3": "", "city": "Oakland", "zip_code": "94618", "country": "US", "state": "CA", "display_address": ["6200 Claremont Ave", "Oakland, CA 94618"]}, "phone": "+15108797813", "display_phone": "(510) 879-7813", "distance": 8925.697328943783}, {"id": "ggpW8zfHDNblsfoDlLEWEQ", "alias": "lees-sandwiches-oakland", "name": "Lee's Sandwiches", "image_url": "https://s3-media2.fl.yelpcdn.com/bphoto/Vz8bHIPUKTXtWN-yOtFl3w/o.jpg", "is_closed": false, "url": "https://www.yelp.com/biz/lees-sandwiches-oakland?adjust_creative=XsFzRbL2g2_AePzT00ptog&utm_campaign=yelp_api_v3&utm_medium=api_v3_business_search&utm_source=XsFzRbL2g2_AePzT00ptog", "review_count": 151, "categories": [{"alias": "vietnamese", "title": "Vietnamese"}, {"alias": "sandwiches", "title": "Sandwiches"}, {"alias": "coffee", "title": "Coffee & Tea"}], "rating": 2.5, "coordinates": {"latitude": 37.7949036752519, "longitude": -122.254164251473}, "transactions": ["delivery"], "price": "$", "location": {"address1": "530 E 12th St", "address2": "", "address3": "", "city": "Oakland", "zip_code": "94606", "country": "US", "state": "CA", "display_address": ["530 E 12th St", "Oakland, CA 94606"]}, "phone": "+15109868888", "display_phone": "(510) 986-8888", "distance": 2857.5882280775368}, {"id": "l8P8rAV6ifNbjAt63Fmt4Q", "alias": "ramen-shop-oakland", "name": "Ramen Shop", "image_url": "https://s3-media1.fl.yelpcdn.com/bphoto/-436IbHMPZjRY3pYzbkk2w/o.jpg", "is_closed": false, "url": "https://www.yelp.com/biz/ramen-shop-oakland?adjust_creative=XsFzRbL2g2_AePzT00ptog&utm_campaign=yelp_api_v3&utm_medium=api_v3_business_search&utm_source=XsFzRbL2g2_AePzT00ptog", "review_count": 1659, "categories": [{"alias": "newamerican", "title": "American (New)"}, {"alias": "ramen", "title": "Ramen"}, {"alias": "cocktailbars", "title": "Cocktail Bars"}], "rating": 3.5, "coordinates": {"latitude": 37.84635, "longitude": -122.25167}, "transactions": ["delivery", "pickup"], "price": "$$", "location": {"address1": "5812 College Ave", "address2": "", "address3": "", "city": "Oakland", "zip_code": "94618", "country": "US", "state": "CA", "display_address": ["5812 College Ave", "Oakland, CA 94618"]}, "phone": "+15106405034", "display_phone": "(510) 640-5034", "distance": 8582.84500279415}, {"id": "SzcRJD8QXHUWQvBkXWasEQ", "alias": "branch-line-pub-emeryville-9", "name": "Branch Line Pub", "image_url": "https://s3-media1.fl.yelpcdn.com/bphoto/SFzRs38Yb4qyLQEc12ZkXQ/o.jpg", "is_closed": false, "url": "https://www.yelp.com/biz/branch-line-pub-emeryville-9?adjust_creative=XsFzRbL2g2_AePzT00ptog&utm_campaign=yelp_api_v3&utm_medium=api_v3_business_search&utm_source=XsFzRbL2g2_AePzT00ptog", "review_count": 221, "categories": [{"alias": "cocktailbars", "title": "Cocktail Bars"}, {"alias": "burgers", "title": "Burgers"}, {"alias": "tapasmallplates", "title": "Tapas/Small Plates"}], "rating": 4.5, "coordinates": {"latitude": 37.84101075248103, "longitude": -122.29028286652616}, "transactions": ["delivery", "pickup"], "price": "$$", "location": {"address1": "5885 Hollis St", "address2": "", "address3": "", "city": "Emeryville", "zip_code": "94608", "country": "US", "state": "CA", "display_address": ["5885 Hollis St", "Emeryville, CA 94608"]}, "phone": "+15105471100", "display_phone": "(510) 547-1100", "distance": 8470.931216848236}, {"id": "UaNn46SbaW0bRDadRnQVlg", "alias": "the-well-oakland-8", "name": "The Well", "image_url": "https://s3-media1.fl.yelpcdn.com/bphoto/T_ozIa-i4l1VT-1U7HgXfw/o.jpg", "is_closed": false, "url": "https://www.yelp.com/biz/the-well-oakland-8?adjust_creative=XsFzRbL2g2_AePzT00ptog&utm_campaign=yelp_api_v3&utm_medium=api_v3_business_search&utm_source=XsFzRbL2g2_AePzT00ptog", "review_count": 329, "categories": [{"alias": "cafes", "title": "Cafes"}, {"alias": "vegan", "title": "Vegan"}, {"alias": "gluten_free", "title": "Gluten-Free"}], "rating": 4.0, "coordinates": {"latitude": 37.840106, "longitude": -122.262198}, "transactions": ["delivery", "pickup"], "price": "$$", "location": {"address1": "5443 Telegraph Ave", "address2": "", "address3": null, "city": "Oakland", "zip_code": "94609", "country": "US", "state": "CA", "display_address": ["5443 Telegraph Ave", "Oakland, CA 94609"]}, "phone": "+15108087315", "display_phone": "(510) 808-7315", "distance": 7880.250938760214}, {"id": "67aohkSjdlM0ev6CD1D1bg", "alias": "kobe-ya-alameda", "name": "Kobe-Ya", "image_url": "https://s3-media3.fl.yelpcdn.com/bphoto/EOvHi7fYLKnC-OUJ7lEtmg/o.jpg", "is_closed": false, "url": "https://www.yelp.com/biz/kobe-ya-alameda?adjust_creative=XsFzRbL2g2_AePzT00ptog&utm_campaign=yelp_api_v3&utm_medium=api_v3_business_search&utm_source=XsFzRbL2g2_AePzT00ptog", "review_count": 179, "categories": [{"alias": "japanese", "title": "Japanese"}, {"alias": "sushi", "title": "Sushi Bars"}], "rating": 3.0, "coordinates": {"latitude": 37.762923108292, "longitude": -122.24532878164}, "transactions": ["delivery"], "price": "$", "location": {"address1": "2300 Encinal Ave", "address2": "", "address3": "", "city": "Alameda", "zip_code": "94501", "country": "US", "state": "CA", "display_address": ["2300 Encinal Ave", "Alameda, CA 94501"]}, "phone": "+15103371966", "display_phone": "(510) 337-1966", "distance": 1291.9431739511347}, {"id": "CtBx4yk_QM8ClITgw94TPQ", "alias": "burma-superstar-oakland-6", "name": "Burma Superstar", "image_url": "https://s3-media2.fl.yelpcdn.com/bphoto/vveuuF7vjSrLQmzmxtsZaA/o.jpg", "is_closed": false, "url": "https://www.yelp.com/biz/burma-superstar-oakland-6?adjust_creative=XsFzRbL2g2_AePzT00ptog&utm_campaign=yelp_api_v3&utm_medium=api_v3_business_search&utm_source=XsFzRbL2g2_AePzT00ptog", "review_count": 2557, "categories": [{"alias": "burmese", "title": "Burmese"}], "rating": 4.0, "coordinates": {"latitude": 37.836020140837, "longitude": -122.262829670553}, "transactions": ["delivery"], "price": "$$", "location": {"address1": "4721 Telegraph Ave", "address2": "", "address3": "", "city": "Oakland", "zip_code": "94609", "country": "US", "state": "CA", "display_address": ["4721 Telegraph Ave", "Oakland, CA 94609"]}, "phone": "+15106522900", "display_phone": "(510) 652-2900", "distance": 7428.107056974053}, {"id": "9Y0QXhMPj0fCyV_yYQ4muw", "alias": "the-rockin-crawfish-oakland", "name": "The Rockin' Crawfish", "image_url": "https://s3-media3.fl.yelpcdn.com/bphoto/Tlxy2EwBX5PpSobZ4ixi6A/o.jpg", "is_closed": false, "url": "https://www.yelp.com/biz/the-rockin-crawfish-oakland?adjust_creative=XsFzRbL2g2_AePzT00ptog&utm_campaign=yelp_api_v3&utm_medium=api_v3_business_search&utm_source=XsFzRbL2g2_AePzT00ptog", "review_count": 1393, "categories": [{"alias": "cajun", "title": "Cajun/Creole"}, {"alias": "seafood", "title": "Seafood"}], "rating": 4.0, "coordinates": {"latitude": 37.79895, "longitude": -122.25449}, "transactions": ["delivery"], "price": "$$", "location": {"address1": "211 Foothill Blvd", "address2": "Ste B", "address3": "", "city": "Oakland", "zip_code": "94606", "country": "US", "state": "CA", "display_address": ["211 Foothill Blvd", "Ste B", "Oakland, CA 94606"]}, "phone": "+15102511657", "display_phone": "(510) 251-1657", "distance": 3300.269477550552}, {"id": "-6QLb-oYsTpRqu-ojn0XTA", "alias": "nona-lim-oakland", "name": "Nona Lim", "image_url": "https://s3-media1.fl.yelpcdn.com/bphoto/nONSSimqpWhRjRy0Wi5rvQ/o.jpg", "is_closed": false, "url": "https://www.yelp.com/biz/nona-lim-oakland?adjust_creative=XsFzRbL2g2_AePzT00ptog&utm_campaign=yelp_api_v3&utm_medium=api_v3_business_search&utm_source=XsFzRbL2g2_AePzT00ptog", "review_count": 9, "categories": [{"alias": "fooddeliveryservices", "title": "Food Delivery Services"}], "rating": 5.0, "coordinates": {"latitude": 37.825426, "longitude": -122.282228}, "transactions": [], "price": "$$$$", "location": {"address1": "3310 Peralta St", "address2": "", "address3": "", "city": "Oakland", "zip_code": "94608", "country": "US", "state": "CA", "display_address": ["3310 Peralta St", "Oakland, CA 94608"]}, "phone": "+14155135328", "display_phone": "(415) 513-5328", "distance": 6601.221346461404}, {"id": "uCtI_VzK-snfYg5mKQRWgQ", "alias": "tacos-mi-rancho-oakland", "name": "Tacos Mi Rancho", "image_url": "https://s3-media1.fl.yelpcdn.com/bphoto/jRoThXeFuHt4fwJWrfh7Ow/o.jpg", "is_closed": false, "url": "https://www.yelp.com/biz/tacos-mi-rancho-oakland?adjust_creative=XsFzRbL2g2_AePzT00ptog&utm_campaign=yelp_api_v3&utm_medium=api_v3_business_search&utm_source=XsFzRbL2g2_AePzT00ptog", "review_count": 953, "categories": [{"alias": "mexican", "title": "Mexican"}, {"alias": "foodtrucks", "title": "Food Trucks"}], "rating": 4.0, "coordinates": {"latitude": 37.7989501953125, "longitude": -122.256484985352}, "transactions": ["delivery"], "price": "$$", "location": {"address1": "1434 1st Ave", "address2": "", "address3": "", "city": "Oakland", "zip_code": "94606", "country": "US", "state": "CA", "display_address": ["1434 1st Ave", "Oakland, CA 94606"]}, "phone": "+15103951403", "display_phone": "(510) 395-1403", "distance": 3294.535510523347}, {"id": "6erJrSwfm-ARmhn3_0QjZw", "alias": "scolaris-alameda", "name": "Scolari's", "image_url": "https://s3-media2.fl.yelpcdn.com/bphoto/4iLttagJdzpf-krSUM_Mpg/o.jpg", "is_closed": false, "url": "https://www.yelp.com/biz/scolaris-alameda?adjust_creative=XsFzRbL2g2_AePzT00ptog&utm_campaign=yelp_api_v3&utm_medium=api_v3_business_search&utm_source=XsFzRbL2g2_AePzT00ptog", "review_count": 1190, "categories": [{"alias": "burgers", "title": "Burgers"}, {"alias": "sandwiches", "title": "Sandwiches"}, {"alias": "salad", "title": "Salad"}], "rating": 4.0, "coordinates": {"latitude": 37.762815790262, "longitude": -122.244188713625}, "transactions": ["delivery"], "price": "$$", "location": {"address1": "1303 Park St", "address2": null, "address3": "", "city": "Alameda", "zip_code": "94501", "country": "US", "state": "CA", "display_address": ["1303 Park St", "Alameda, CA 94501"]}, "phone": "+15105212400", "display_phone": "(510) 521-2400", "distance": 1382.794372873841}, {"id": "cEZKRAM1CMFwXq2x9pH96A", "alias": "the-best-dim-sum-and-pastry-oakland", "name": "The Best Dim Sum & Pastry", "image_url": "https://s3-media3.fl.yelpcdn.com/bphoto/0FyoYJcEya6_-CLTczpwew/o.jpg", "is_closed": false, "url": "https://www.yelp.com/biz/the-best-dim-sum-and-pastry-oakland?adjust_creative=XsFzRbL2g2_AePzT00ptog&utm_campaign=yelp_api_v3&utm_medium=api_v3_business_search&utm_source=XsFzRbL2g2_AePzT00ptog", "review_count": 72, "categories": [{"alias": "dimsum", "title": "Dim Sum"}], "rating": 3.5, "coordinates": {"latitude": 37.7932737834383, "longitude": -122.253049491068}, "transactions": ["delivery"], "price": "$", "location": {"address1": "723 E 12th St", "address2": "", "address3": "", "city": "Oakland", "zip_code": "94606", "country": "US", "state": "CA", "display_address": ["723 E 12th St", "Oakland, CA 94606"]}, "phone": "+15102681823", "display_phone": "(510) 268-1823", "distance": 2690.154308026153}, {"id": "k3zudYZkR64kiiJBjtUC0g", "alias": "soba-ichi-oakland", "name": "Soba Ichi", "image_url": "https://s3-media1.fl.yelpcdn.com/bphoto/uL66oKmlPn822Sd3pA0Rtw/o.jpg", "is_closed": false, "url": "https://www.yelp.com/biz/soba-ichi-oakland?adjust_creative=XsFzRbL2g2_AePzT00ptog&utm_campaign=yelp_api_v3&utm_medium=api_v3_business_search&utm_source=XsFzRbL2g2_AePzT00ptog", "review_count": 313, "categories": [{"alias": "noodles", "title": "Noodles"}, {"alias": "izakaya", "title": "Izakaya"}], "rating": 4.0, "coordinates": {"latitude": 37.8167230582714, "longitude": -122.28479230006}, "transactions": ["delivery"], "price": "$$", "location": {"address1": "2311 Magnolia St", "address2": "Ste A", "address3": null, "city": "Oakland", "zip_code": "94607", "country": "US", "state": "CA", "display_address": ["2311 Magnolia St", "Ste A", "Oakland, CA 94607"]}, "phone": "+15104651969", "display_phone": "(510) 465-1969", "distance": 5797.648418218255}, {"id": "W8_B83ll-muh5lbpTgJCWQ", "alias": "the-fusion-factory-san-leandro", "name": "The Fusion Factory", "image_url": "https://s3-media4.fl.yelpcdn.com/bphoto/W6hbJRk5lELTUxurrH75lw/o.jpg", "is_closed": false, "url": "https://www.yelp.com/biz/the-fusion-factory-san-leandro?adjust_creative=XsFzRbL2g2_AePzT00ptog&utm_campaign=yelp_api_v3&utm_medium=api_v3_business_search&utm_source=XsFzRbL2g2_AePzT00ptog", "review_count": 368, "categories": [{"alias": "asianfusion", "title": "Asian Fusion"}, {"alias": "sandwiches", "title": "Sandwiches"}, {"alias": "pizza", "title": "Pizza"}], "rating": 3.5, "coordinates": {"latitude": 37.70944, "longitude": -122.17035}, "transactions": ["delivery", "pickup"], "price": "$", "location": {"address1": "1776 Marina Blvd", "address2": "", "address3": null, "city": "San Leandro", "zip_code": "94577", "country": "US", "state": "CA", "display_address": ["1776 Marina Blvd", "San Leandro, CA 94577"]}, "phone": "+15107566420", "display_phone": "(510) 756-6420", "distance": 10160.390057887786}, {"id": "7yX7C5zOepVFKqLv1bnuzg", "alias": "koryo-sushi-oakland", "name": "Koryo Sushi", "image_url": "https://s3-media2.fl.yelpcdn.com/bphoto/E1K3OvMPoTMTNRFPwXNM4w/o.jpg", "is_closed": false, "url": "https://www.yelp.com/biz/koryo-sushi-oakland?adjust_creative=XsFzRbL2g2_AePzT00ptog&utm_campaign=yelp_api_v3&utm_medium=api_v3_business_search&utm_source=XsFzRbL2g2_AePzT00ptog", "review_count": 356, "categories": [{"alias": "sushi", "title": "Sushi Bars"}, {"alias": "japanese", "title": "Japanese"}], "rating": 3.5, "coordinates": {"latitude": 37.83212735014205, "longitude": -122.26304588978287}, "transactions": ["delivery", "pickup"], "price": "$$", "location": {"address1": "4390 Telegraph Ave", "address2": "Ste G", "address3": "", "city": "Oakland", "zip_code": "94609", "country": "US", "state": "CA", "display_address": ["4390 Telegraph Ave", "Ste G", "Oakland, CA 94609"]}, "phone": "+15105940661", "display_phone": "(510) 594-0661", "distance": 6997.417034992855}, {"id": "cgImAqtrpVg7hN_6lsFJrQ", "alias": "farmhouse-kitchen-thai-cuisine-oakland", "name": "Farmhouse Kitchen Thai Cuisine", "image_url": "https://s3-media1.fl.yelpcdn.com/bphoto/htkVpfws9qBrWZgkoLrtEg/o.jpg", "is_closed": false, "url": "https://www.yelp.com/biz/farmhouse-kitchen-thai-cuisine-oakland?adjust_creative=XsFzRbL2g2_AePzT00ptog&utm_campaign=yelp_api_v3&utm_medium=api_v3_business_search&utm_source=XsFzRbL2g2_AePzT00ptog", "review_count": 1652, "categories": [{"alias": "thai", "title": "Thai"}, {"alias": "cocktailbars", "title": "Cocktail Bars"}, {"alias": "desserts", "title": "Desserts"}], "rating": 4.0, "coordinates": {"latitude": 37.794215, "longitude": -122.275465}, "transactions": ["delivery", "restaurant_reservation"], "price": "$$", "location": {"address1": "336 Water St", "address2": "", "address3": null, "city": "Oakland", "zip_code": "94607", "country": "US", "state": "CA", "display_address": ["336 Water St", "Oakland, CA 94607"]}, "phone": "+15104190541", "display_phone": "(510) 419-0541", "distance": 3173.7471577639612}, {"id": "zj0W7A7EFCxqZAChX_NwPg", "alias": "qi-dumpling-lounge-oakland", "name": "Qi Dumpling Lounge", "image_url": "https://s3-media3.fl.yelpcdn.com/bphoto/y0t30RuIaDUAiJDEkmrYnw/o.jpg", "is_closed": false, "url": "https://www.yelp.com/biz/qi-dumpling-lounge-oakland?adjust_creative=XsFzRbL2g2_AePzT00ptog&utm_campaign=yelp_api_v3&utm_medium=api_v3_business_search&utm_source=XsFzRbL2g2_AePzT00ptog", "review_count": 290, "categories": [{"alias": "chinese", "title": "Chinese"}, {"alias": "asianfusion", "title": "Asian Fusion"}], "rating": 4.0, "coordinates": {"latitude": 37.8127050472056, "longitude": -122.246782109141}, "transactions": ["delivery", "pickup"], "price": "$$", "location": {"address1": "3300 Grand Ave", "address2": "", "address3": null, "city": "Oakland", "zip_code": "94610", "country": "US", "state": "CA", "display_address": ["3300 Grand Ave", "Oakland, CA 94610"]}, "phone": "+15108232082", "display_phone": "(510) 823-2082", "distance": 4913.6458476450125}, {"id": "eBmqha_AlsNemu0yJX0qeg", "alias": "cafe-sorriso-san-leandro", "name": "Cafe Sorriso", "image_url": "https://s3-media1.fl.yelpcdn.com/bphoto/gRVyKtOnJ5zVvs1T4tVvQQ/o.jpg", "is_closed": false, "url": "https://www.yelp.com/biz/cafe-sorriso-san-leandro?adjust_creative=XsFzRbL2g2_AePzT00ptog&utm_campaign=yelp_api_v3&utm_medium=api_v3_business_search&utm_source=XsFzRbL2g2_AePzT00ptog", "review_count": 297, "categories": [{"alias": "coffee", "title": "Coffee & Tea"}, {"alias": "sandwiches", "title": "Sandwiches"}], "rating": 4.0, "coordinates": {"latitude": 37.7228, "longitude": -122.155194}, "transactions": ["delivery", "pickup"], "price": "$", "location": {"address1": "1501 Washington Ave", "address2": "", "address3": "", "city": "San Leandro", "zip_code": "94577", "country": "US", "state": "CA", "display_address": ["1501 Washington Ave", "San Leandro, CA 94577"]}, "phone": "+15103513605", "display_phone": "(510) 351-3605", "distance": 10383.81193583262}, {"id": "yIMkZUo5XuwCv1AOCVZB6A", "alias": "koreana-plaza-market-oakland-2", "name": "Koreana Plaza Market", "image_url": "https://s3-media3.fl.yelpcdn.com/bphoto/beq0KotgPDDH-gAJ3HhVSg/o.jpg", "is_closed": false, "url": "https://www.yelp.com/biz/koreana-plaza-market-oakland-2?adjust_creative=XsFzRbL2g2_AePzT00ptog&utm_campaign=yelp_api_v3&utm_medium=api_v3_business_search&utm_source=XsFzRbL2g2_AePzT00ptog", "review_count": 658, "categories": [{"alias": "intlgrocery", "title": "International Grocery"}, {"alias": "seafoodmarkets", "title": "Seafood Markets"}], "rating": 4.0, "coordinates": {"latitude": 37.813564, "longitude": -122.267838}, "transactions": [], "price": "$$", "location": {"address1": "2370 Telegraph Ave", "address2": "", "address3": "", "city": "Oakland", "zip_code": "94612", "country": "US", "state": "CA", "display_address": ["2370 Telegraph Ave", "Oakland, CA 94612"]}, "phone": "+15109861234", "display_phone": "(510) 986-1234", "distance": 4998.751737008463}, {"id": "QCGSIIm7rhp3CIprAr5G9w", "alias": "sobo-ramen-oakland-2", "name": "Sobo Ramen", "image_url": "https://s3-media1.fl.yelpcdn.com/bphoto/HMytl3VqqEmjdM1b60XBrw/o.jpg", "is_closed": false, "url": "https://www.yelp.com/biz/sobo-ramen-oakland-2?adjust_creative=XsFzRbL2g2_AePzT00ptog&utm_campaign=yelp_api_v3&utm_medium=api_v3_business_search&utm_source=XsFzRbL2g2_AePzT00ptog", "review_count": 1006, "categories": [{"alias": "ramen", "title": "Ramen"}, {"alias": "comfortfood", "title": "Comfort Food"}, {"alias": "bars", "title": "Bars"}], "rating": 3.5, "coordinates": {"latitude": 37.8006699, "longitude": -122.271212}, "transactions": ["delivery", "pickup", "restaurant_reservation"], "price": "$$", "location": {"address1": "988 Franklin St", "address2": "Ste 186", "address3": "", "city": "Oakland", "zip_code": "94607", "country": "US", "state": "CA", "display_address": ["988 Franklin St", "Ste 186", "Oakland, CA 94607"]}, "phone": "+15108327626", "display_phone": "(510) 832-7626", "distance": 3683.3652849398477}, {"id": "hfVYUuJRS7Q4rgNVHCB0Rg", "alias": "colonial-donuts-oakland-3", "name": "Colonial Donuts", "image_url": "https://s3-media1.fl.yelpcdn.com/bphoto/wSH7Sd0XvyUb7AAzusnCrw/o.jpg", "is_closed": false, "url": "https://www.yelp.com/biz/colonial-donuts-oakland-3?adjust_creative=XsFzRbL2g2_AePzT00ptog&utm_campaign=yelp_api_v3&utm_medium=api_v3_business_search&utm_source=XsFzRbL2g2_AePzT00ptog", "review_count": 548, "categories": [{"alias": "donuts", "title": "Donuts"}, {"alias": "coffee", "title": "Coffee & Tea"}, {"alias": "newamerican", "title": "American (New)"}], "rating": 4.0, "coordinates": {"latitude": 37.81059, "longitude": -122.24366}, "transactions": ["delivery"], "price": "$", "location": {"address1": "3318 Lakeshore Ave", "address2": "", "address3": "", "city": "Oakland", "zip_code": "94610", "country": "US", "state": "CA", "display_address": ["3318 Lakeshore Ave", "Oakland, CA 94610"]}, "phone": "+15108932503", "display_phone": "(510) 893-2503", "distance": 4750.426482680298}, {"id": "rrJaa6p9NC15b0q3VtjJoQ", "alias": "jasmine-blossom-thai-cuisine-emeryville", "name": "Jasmine Blossom Thai Cuisine", "image_url": "https://s3-media1.fl.yelpcdn.com/bphoto/2fpvoepEQ3n8NZ4BlhnBUw/o.jpg", "is_closed": false, "url": "https://www.yelp.com/biz/jasmine-blossom-thai-cuisine-emeryville?adjust_creative=XsFzRbL2g2_AePzT00ptog&utm_campaign=yelp_api_v3&utm_medium=api_v3_business_search&utm_source=XsFzRbL2g2_AePzT00ptog", "review_count": 486, "categories": [{"alias": "thai", "title": "Thai"}, {"alias": "breakfast_brunch", "title": "Breakfast & Brunch"}], "rating": 4.0, "coordinates": {"latitude": 37.8471120234098, "longitude": -122.291524026074}, "transactions": ["delivery", "pickup"], "price": "$$", "location": {"address1": "6520 Hollis St", "address2": null, "address3": "", "city": "Emeryville", "zip_code": "94608", "country": "US", "state": "CA", "display_address": ["6520 Hollis St", "Emeryville, CA 94608"]}, "phone": "+15107880766", "display_phone": "(510) 788-0766", "distance": 9146.973992300987}, {"id": "jNUDkGjtbZcLSaV00Rsnxg", "alias": "ba-le-french-coffee-shop-oakland", "name": "Ba Le French Coffee Shop", "image_url": "https://s3-media3.fl.yelpcdn.com/bphoto/ZaxIuYJ3c7x7Eap43nhePQ/o.jpg", "is_closed": false, "url": "https://www.yelp.com/biz/ba-le-french-coffee-shop-oakland?adjust_creative=XsFzRbL2g2_AePzT00ptog&utm_campaign=yelp_api_v3&utm_medium=api_v3_business_search&utm_source=XsFzRbL2g2_AePzT00ptog", "review_count": 105, "categories": [{"alias": "vietnamese", "title": "Vietnamese"}, {"alias": "coffee", "title": "Coffee & Tea"}, {"alias": "french", "title": "French"}], "rating": 3.0, "coordinates": {"latitude": 37.7999099, "longitude": -122.27212}, "transactions": [], "price": "$", "location": {"address1": "812 Franklin St", "address2": "", "address3": "", "city": "Oakland", "zip_code": "94607", "country": "US", "state": "CA", "display_address": ["812 Franklin St", "Oakland, CA 94607"]}, "phone": "+15104653522", "display_phone": "(510) 465-3522", "distance": 3632.0254140994007}, {"id": "DWKZS53O-9WnH4IQvbTk6A", "alias": "classic-guilin-rice-noodles-oakland", "name": "Classic Guilin Rice Noodles", "image_url": "https://s3-media3.fl.yelpcdn.com/bphoto/feHMD7lsSc_tVxrUrJ0lFA/o.jpg", "is_closed": false, "url": "https://www.yelp.com/biz/classic-guilin-rice-noodles-oakland?adjust_creative=XsFzRbL2g2_AePzT00ptog&utm_campaign=yelp_api_v3&utm_medium=api_v3_business_search&utm_source=XsFzRbL2g2_AePzT00ptog", "review_count": 192, "categories": [{"alias": "chinese", "title": "Chinese"}, {"alias": "noodles", "title": "Noodles"}], "rating": 3.5, "coordinates": {"latitude": 37.7993779, "longitude": -122.2664907}, "transactions": ["delivery"], "price": "$$", "location": {"address1": "188 10th St", "address2": null, "address3": "", "city": "Oakland", "zip_code": "94607", "country": "US", "state": "CA", "display_address": ["188 10th St", "Oakland, CA 94607"]}, "phone": "+15102509333", "display_phone": "(510) 250-9333", "distance": 3429.9919101183236}, {"id": "spIOc3JhRPZsRbJViOLTyg", "alias": "mai-thai-cuisine-san-leandro", "name": "Mai Thai Cuisine", "image_url": "https://s3-media2.fl.yelpcdn.com/bphoto/RR5-sbnre1ANfN7rPgvrHw/o.jpg", "is_closed": false, "url": "https://www.yelp.com/biz/mai-thai-cuisine-san-leandro?adjust_creative=XsFzRbL2g2_AePzT00ptog&utm_campaign=yelp_api_v3&utm_medium=api_v3_business_search&utm_source=XsFzRbL2g2_AePzT00ptog", "review_count": 560, "categories": [{"alias": "thai", "title": "Thai"}], "rating": 3.5, "coordinates": {"latitude": 37.69974, "longitude": -122.17639}, "transactions": ["delivery", "pickup"], "price": "$$", "location": {"address1": "13700 Doolittle Dr", "address2": "Ste 110", "address3": null, "city": "San Leandro", "zip_code": "94577", "country": "US", "state": "CA", "display_address": ["13700 Doolittle Dr", "Ste 110", "San Leandro, CA 94577"]}, "phone": "+15103519898", "display_phone": "(510) 351-9898", "distance": 10544.082709394126}, {"id": "gUx1vACeyRM31nryslMtsw", "alias": "wonder-food-bakery-oakland", "name": "Wonder Food Bakery", "image_url": "https://s3-media2.fl.yelpcdn.com/bphoto/9AyWhRn3aIx2pOkiCfI2Ug/o.jpg", "is_closed": false, "url": "https://www.yelp.com/biz/wonder-food-bakery-oakland?adjust_creative=XsFzRbL2g2_AePzT00ptog&utm_campaign=yelp_api_v3&utm_medium=api_v3_business_search&utm_source=XsFzRbL2g2_AePzT00ptog", "review_count": 311, "categories": [{"alias": "bakeries", "title": "Bakeries"}], "rating": 4.0, "coordinates": {"latitude": 37.7999347, "longitude": -122.2705818}, "transactions": [], "price": "$", "location": {"address1": "340 9th St", "address2": "", "address3": "", "city": "Oakland", "zip_code": "94607", "country": "US", "state": "CA", "display_address": ["340 9th St", "Oakland, CA 94607"]}, "phone": "+15108934193", "display_phone": "(510) 893-4193", "distance": 3593.7961722057016}, {"id": "Rs6gVVOWEyNT9rLrO6gyTw", "alias": "project-burger-alameda-2", "name": "Project Burger", "image_url": "https://s3-media4.fl.yelpcdn.com/bphoto/mdpwbQxJaFhWN4QKvBsOpA/o.jpg", "is_closed": false, "url": "https://www.yelp.com/biz/project-burger-alameda-2?adjust_creative=XsFzRbL2g2_AePzT00ptog&utm_campaign=yelp_api_v3&utm_medium=api_v3_business_search&utm_source=XsFzRbL2g2_AePzT00ptog", "review_count": 132, "categories": [{"alias": "tradamerican", "title": "American (Traditional)"}], "rating": 4.5, "coordinates": {"latitude": 37.764542, "longitude": -122.243273}, "transactions": ["delivery", "pickup"], "price": "$$", "location": {"address1": "2319 Central Ave", "address2": "", "address3": null, "city": "Alameda", "zip_code": "94501", "country": "US", "state": "CA", "display_address": ["2319 Central Ave", "Alameda, CA 94501"]}, "phone": "+15108653032", "display_phone": "(510) 865-3032", "distance": 1366.0410710652238}, {"id": "GFopRCHuQElNyD8TCauJfw", "alias": "quan-nhau-tu-hai-oakland", "name": "Quan Nhau Tu Hai", "image_url": "", "is_closed": false, "url": "https://www.yelp.com/biz/quan-nhau-tu-hai-oakland?adjust_creative=XsFzRbL2g2_AePzT00ptog&utm_campaign=yelp_api_v3&utm_medium=api_v3_business_search&utm_source=XsFzRbL2g2_AePzT00ptog", "review_count": 1, "categories": [{"alias": "vietnamese", "title": "Vietnamese"}], "rating": 2.0, "coordinates": {"latitude": 37.7932195365429, "longitude": -122.251052856445}, "transactions": [], "location": {"address1": "827 International Blvd", "address2": "", "address3": "", "city": "Oakland", "zip_code": "94620", "country": "US", "state": "CA", "display_address": ["827 International Blvd", "Oakland, CA 94620"]}, "phone": "+15104650936", "display_phone": "(510) 465-0936", "distance": 2702.7748168274325}, {"id": "fKhcqqg-eLDpUhkcHRY2ZA", "alias": "thien-loi-hoa-supermarket-oakland", "name": "Thien Loi Hoa Supermarket", "image_url": "https://s3-media2.fl.yelpcdn.com/bphoto/yvuZCZjsl3t7R5uG_X1eCw/o.jpg", "is_closed": false, "url": "https://www.yelp.com/biz/thien-loi-hoa-supermarket-oakland?adjust_creative=XsFzRbL2g2_AePzT00ptog&utm_campaign=yelp_api_v3&utm_medium=api_v3_business_search&utm_source=XsFzRbL2g2_AePzT00ptog", "review_count": 34, "categories": [{"alias": "grocery", "title": "Grocery"}], "rating": 3.0, "coordinates": {"latitude": 37.78986, "longitude": -122.24943}, "transactions": [], "price": "$", "location": {"address1": "1199 E 12th St", "address2": "", "address3": "", "city": "Oakland", "zip_code": "94606", "country": "US", "state": "CA", "display_address": ["1199 E 12th St", "Oakland, CA 94606"]}, "phone": "+15106630138", "display_phone": "(510) 663-0138", "distance": 2395.8106446466554}, {"id": "Jiz82V_WXIfZf02AuSSvDA", "alias": "chop-bar-oakland", "name": "Chop Bar", "image_url": "https://s3-media1.fl.yelpcdn.com/bphoto/amWKwEq3RO0WHHcl2cdXIw/o.jpg", "is_closed": false, "url": "https://www.yelp.com/biz/chop-bar-oakland?adjust_creative=XsFzRbL2g2_AePzT00ptog&utm_campaign=yelp_api_v3&utm_medium=api_v3_business_search&utm_source=XsFzRbL2g2_AePzT00ptog", "review_count": 2089, "categories": [{"alias": "newamerican", "title": "American (New)"}, {"alias": "breakfast_brunch", "title": "Breakfast & Brunch"}, {"alias": "cocktailbars", "title": "Cocktail Bars"}], "rating": 4.0, "coordinates": {"latitude": 37.795275493551486, "longitude": -122.26928717501382}, "transactions": ["delivery"], "price": "$$", "location": {"address1": "190 4th St", "address2": "", "address3": "", "city": "Oakland", "zip_code": "94607", "country": "US", "state": "CA", "display_address": ["190 4th St", "Oakland, CA 94607"]}, "phone": "+15108342467", "display_phone": "(510) 834-2467", "distance": 3061.3506856515837}, {"id": "zS7YnzgcuxkXBxCJHKJFhg", "alias": "vegan-mob-oakland-4", "name": "Vegan Mob", "image_url": "https://s3-media4.fl.yelpcdn.com/bphoto/WIY-rjgP4BtA4gRZYrA8oA/o.jpg", "is_closed": false, "url": "https://www.yelp.com/biz/vegan-mob-oakland-4?adjust_creative=XsFzRbL2g2_AePzT00ptog&utm_campaign=yelp_api_v3&utm_medium=api_v3_business_search&utm_source=XsFzRbL2g2_AePzT00ptog", "review_count": 920, "categories": [{"alias": "bbq", "title": "Barbeque"}, {"alias": "soulfood", "title": "Soul Food"}, {"alias": "vegan", "title": "Vegan"}], "rating": 4.0, "coordinates": {"latitude": 37.810572, "longitude": -122.247057}, "transactions": ["delivery"], "price": "$$", "location": {"address1": "500 Lake Park Ave", "address2": null, "address3": null, "city": "Oakland", "zip_code": "94610", "country": "US", "state": "CA", "display_address": ["500 Lake Park Ave", "Oakland, CA 94610"]}, "phone": "+14155135120", "display_phone": "(415) 513-5120", "distance": 4674.848752922378}, {"id": "NqSVQ_DJZpVmCbJHaFcIsQ", "alias": "geta-oakland", "name": "Geta", "image_url": "https://s3-media1.fl.yelpcdn.com/bphoto/vRR7honMw5Nz5gqnAm6Xgw/o.jpg", "is_closed": false, "url": "https://www.yelp.com/biz/geta-oakland?adjust_creative=XsFzRbL2g2_AePzT00ptog&utm_campaign=yelp_api_v3&utm_medium=api_v3_business_search&utm_source=XsFzRbL2g2_AePzT00ptog", "review_count": 1777, "categories": [{"alias": "japanese", "title": "Japanese"}, {"alias": "sushi", "title": "Sushi Bars"}], "rating": 4.0, "coordinates": {"latitude": 37.82658, "longitude": -122.25293}, "transactions": ["delivery"], "price": "$$", "location": {"address1": "165 41st St", "address2": "", "address3": "", "city": "Oakland", "zip_code": "94611", "country": "US", "state": "CA", "display_address": ["165 41st St", "Oakland, CA 94611"]}, "phone": "+15106534643", "display_phone": "(510) 653-4643", "distance": 6378.299070395246}, {"id": "hGigNfESKiesYKlZhGxXww", "alias": "burger-king-oakland-7", "name": "Burger King", "image_url": "https://s3-media2.fl.yelpcdn.com/bphoto/uhNqnchrVZcRkIeYzyDwWg/o.jpg", "is_closed": false, "url": "https://www.yelp.com/biz/burger-king-oakland-7?adjust_creative=XsFzRbL2g2_AePzT00ptog&utm_campaign=yelp_api_v3&utm_medium=api_v3_business_search&utm_source=XsFzRbL2g2_AePzT00ptog", "review_count": 77, "categories": [{"alias": "hotdogs", "title": "Fast Food"}, {"alias": "burgers", "title": "Burgers"}], "rating": 1.5, "coordinates": {"latitude": 37.7879716, "longitude": -122.2462194}, "transactions": ["delivery"], "price": "$", "location": {"address1": "1541 E 12th St", "address2": "", "address3": "", "city": "Oakland", "zip_code": "94606", "country": "US", "state": "CA", "display_address": ["1541 E 12th St", "Oakland, CA 94606"]}, "phone": "+15105345469", "display_phone": "(510) 534-5469", "distance": 2298.965725270466}, {"id": "FbVRTMwrsKIuH8CKJ6oInw", "alias": "c-d-p-oakland", "name": "C.D.P.", "image_url": "https://s3-media4.fl.yelpcdn.com/bphoto/fzfg802ICzTAktJv2hJrkQ/o.jpg", "is_closed": false, "url": "https://www.yelp.com/biz/c-d-p-oakland?adjust_creative=XsFzRbL2g2_AePzT00ptog&utm_campaign=yelp_api_v3&utm_medium=api_v3_business_search&utm_source=XsFzRbL2g2_AePzT00ptog", "review_count": 40, "categories": [{"alias": "cocktailbars", "title": "Cocktail Bars"}, {"alias": "tapasmallplates", "title": "Tapas/Small Plates"}], "rating": 4.5, "coordinates": {"latitude": 37.8248061, "longitude": -122.255}, "transactions": [], "location": {"address1": "3861 Piedmont Ave", "address2": "", "address3": null, "city": "Oakland", "zip_code": "94611", "country": "US", "state": "CA", "display_address": ["3861 Piedmont Ave", "Oakland, CA 94611"]}, "phone": "+15106533902", "display_phone": "(510) 653-3902", "distance": 6170.961268827797}, {"id": "Op-jruPAKjOFKrALkXVWZA", "alias": "shiba-ramen-emeryville", "name": "Shiba Ramen", "image_url": "https://s3-media2.fl.yelpcdn.com/bphoto/EB8DLJwggcOd1qraGIojYg/o.jpg", "is_closed": false, "url": "https://www.yelp.com/biz/shiba-ramen-emeryville?adjust_creative=XsFzRbL2g2_AePzT00ptog&utm_campaign=yelp_api_v3&utm_medium=api_v3_business_search&utm_source=XsFzRbL2g2_AePzT00ptog", "review_count": 382, "categories": [{"alias": "ramen", "title": "Ramen"}], "rating": 3.0, "coordinates": {"latitude": 37.841217, "longitude": -122.293966}, "transactions": ["delivery"], "price": "$$", "location": {"address1": "5959 Shellmound St", "address2": "Ste 10", "address3": "", "city": "Emeryville", "zip_code": "94608", "country": "US", "state": "CA", "display_address": ["5959 Shellmound St", "Ste 10", "Emeryville, CA 94608"]}, "phone": "+15109858309", "display_phone": "(510) 985-8309", "distance": 8607.379273512392}, {"id": "FGnitdEvMwEnQjLE2OZyrA", "alias": "grand-express-oakland", "name": "Grand Express", "image_url": "https://s3-media4.fl.yelpcdn.com/bphoto/6GCxu9S1082DLmYVsLqEXg/o.jpg", "is_closed": false, "url": "https://www.yelp.com/biz/grand-express-oakland?adjust_creative=XsFzRbL2g2_AePzT00ptog&utm_campaign=yelp_api_v3&utm_medium=api_v3_business_search&utm_source=XsFzRbL2g2_AePzT00ptog", "review_count": 18, "categories": [{"alias": "beer_and_wine", "title": "Beer, Wine & Spirits"}, {"alias": "convenience", "title": "Convenience Stores"}], "rating": 3.5, "coordinates": {"latitude": 37.8086585998535, "longitude": -122.255279541016}, "transactions": [], "price": "$$", "location": {"address1": "363 Grand Ave", "address2": "", "address3": "", "city": "Oakland", "zip_code": "94610", "country": "US", "state": "CA", "display_address": ["363 Grand Ave", "Oakland, CA 94610"]}, "phone": "+15104447629", "display_phone": "(510) 444-7629", "distance": 4378.079958735513}, {"id": "VAG7WU0cY7276r0gdDaB9A", "alias": "pomet-oakland-2", "name": "Pomet", "image_url": "https://s3-media4.fl.yelpcdn.com/bphoto/fr5DLMiJCF-RjFzjWH6E6g/o.jpg", "is_closed": false, "url": "https://www.yelp.com/biz/pomet-oakland-2?adjust_creative=XsFzRbL2g2_AePzT00ptog&utm_campaign=yelp_api_v3&utm_medium=api_v3_business_search&utm_source=XsFzRbL2g2_AePzT00ptog", "review_count": 23, "categories": [{"alias": "newamerican", "title": "American (New)"}], "rating": 4.5, "coordinates": {"latitude": 37.82598, "longitude": -122.25336}, "transactions": [], "price": "$$$$", "location": {"address1": "4029 Piedmont Ave", "address2": "", "address3": null, "city": "Oakland", "zip_code": "94611", "country": "US", "state": "CA", "display_address": ["4029 Piedmont Ave", "Oakland, CA 94611"]}, "phone": "+15104502541", "display_phone": "(510) 450-2541", "distance": 6318.55762160582}, {"id": "fnE_jLrmTO-XTVLI3PR_0g", "alias": "orbit-coffee-7th-st-oakland", "name": "Orbit Coffee 7th St.", "image_url": "https://s3-media3.fl.yelpcdn.com/bphoto/EiFQzJIMi_UB4QAaO_iyag/o.jpg", "is_closed": false, "url": "https://www.yelp.com/biz/orbit-coffee-7th-st-oakland?adjust_creative=XsFzRbL2g2_AePzT00ptog&utm_campaign=yelp_api_v3&utm_medium=api_v3_business_search&utm_source=XsFzRbL2g2_AePzT00ptog", "review_count": 539, "categories": [{"alias": "coffee", "title": "Coffee & Tea"}, {"alias": "donuts", "title": "Donuts"}, {"alias": "sandwiches", "title": "Sandwiches"}], "rating": 4.0, "coordinates": {"latitude": 37.804101804558655, "longitude": -122.29005983679791}, "transactions": ["delivery", "pickup"], "price": "$", "location": {"address1": "1225 7th St", "address2": "Ste C", "address3": "", "city": "Oakland", "zip_code": "94607", "country": "US", "state": "CA", "display_address": ["1225 7th St", "Ste C", "Oakland, CA 94607"]}, "phone": "+15109100532", "display_phone": "(510) 910-0532", "distance": 4804.555608197053}, {"id": "HAmjavXikrJuPZ0XP9NrSQ", "alias": "take-it-easy-oakland", "name": "Take It Easy", "image_url": "https://s3-media1.fl.yelpcdn.com/bphoto/SeDCUlW1QxmC1Ubb6xqs0w/o.jpg", "is_closed": false, "url": "https://www.yelp.com/biz/take-it-easy-oakland?adjust_creative=XsFzRbL2g2_AePzT00ptog&utm_campaign=yelp_api_v3&utm_medium=api_v3_business_search&utm_source=XsFzRbL2g2_AePzT00ptog", "review_count": 229, "categories": [{"alias": "thai", "title": "Thai"}], "rating": 3.5, "coordinates": {"latitude": 37.805700009529, "longitude": -122.26756721193}, "transactions": ["delivery"], "price": "$", "location": {"address1": "351 17th St", "address2": "", "address3": "", "city": "Oakland", "zip_code": "94612", "country": "US", "state": "CA", "display_address": ["351 17th St", "Oakland, CA 94612"]}, "phone": "+15104522442", "display_phone": "(510) 452-2442", "distance": 4136.561680798652}, {"id": "r7fgX1npiwTuxJUgGJY-9Q", "alias": "lg-supermarket-oakland-2", "name": "LG Supermarket", "image_url": "https://s3-media1.fl.yelpcdn.com/bphoto/YYah5YUQ54dndy9_V2SiOQ/o.jpg", "is_closed": false, "url": "https://www.yelp.com/biz/lg-supermarket-oakland-2?adjust_creative=XsFzRbL2g2_AePzT00ptog&utm_campaign=yelp_api_v3&utm_medium=api_v3_business_search&utm_source=XsFzRbL2g2_AePzT00ptog", "review_count": 15, "categories": [{"alias": "grocery", "title": "Grocery"}], "rating": 2.5, "coordinates": {"latitude": 37.80017, "longitude": -122.27005}, "transactions": [], "price": "$$", "location": {"address1": "325 10th St", "address2": "", "address3": "", "city": "Oakland", "zip_code": "94607", "country": "US", "state": "CA", "display_address": ["325 10th St", "Oakland, CA 94607"]}, "phone": "+15102388618", "display_phone": "(510) 238-8618", "distance": 3603.4222068189792}, {"id": "9Kgr2MVkcabB40XGmXP90A", "alias": "pill-hill-deli-oakland", "name": "Pill Hill Deli", "image_url": "https://s3-media1.fl.yelpcdn.com/bphoto/ZmSPDa1MfZrt0oEpq76Zig/o.jpg", "is_closed": false, "url": "https://www.yelp.com/biz/pill-hill-deli-oakland?adjust_creative=XsFzRbL2g2_AePzT00ptog&utm_campaign=yelp_api_v3&utm_medium=api_v3_business_search&utm_source=XsFzRbL2g2_AePzT00ptog", "review_count": 61, "categories": [{"alias": "delis", "title": "Delis"}], "rating": 4.0, "coordinates": {"latitude": 37.81927, "longitude": -122.26481}, "transactions": ["delivery"], "price": "$", "location": {"address1": "400 30th St", "address2": "Ste 401", "address3": "", "city": "Oakland", "zip_code": "94609", "country": "US", "state": "CA", "display_address": ["400 30th St", "Ste 401", "Oakland, CA 94609"]}, "phone": "+15108348819", "display_phone": "(510) 834-8819", "distance": 5585.228697002723}, {"id": "MCRJyzRfmz16ZpEjYFnHtQ", "alias": "sun-hop-fat-1-supermarket-oakland", "name": "Sun Hop Fat 1 Supermarket", "image_url": "https://s3-media1.fl.yelpcdn.com/bphoto/z6THeMbhjIhNAve92V6E6A/o.jpg", "is_closed": false, "url": "https://www.yelp.com/biz/sun-hop-fat-1-supermarket-oakland?adjust_creative=XsFzRbL2g2_AePzT00ptog&utm_campaign=yelp_api_v3&utm_medium=api_v3_business_search&utm_source=XsFzRbL2g2_AePzT00ptog", "review_count": 89, "categories": [{"alias": "grocery", "title": "Grocery"}], "rating": 2.5, "coordinates": {"latitude": 37.7946815490723, "longitude": -122.254760742188}, "transactions": [], "price": "$", "location": {"address1": "501 E 12th St", "address2": "", "address3": "", "city": "Oakland", "zip_code": "94606", "country": "US", "state": "CA", "display_address": ["501 E 12th St", "Oakland, CA 94606"]}, "phone": "+15107638888", "display_phone": "(510) 763-8888", "distance": 2836.8737813402595}, {"id": "uAHNKMsRG3A9-DXp7922DQ", "alias": "smitten-ice-cream-oakland-3", "name": "Smitten Ice Cream", "image_url": "https://s3-media1.fl.yelpcdn.com/bphoto/weiPp3qaEeiEY39DDPrX6g/o.jpg", "is_closed": false, "url": "https://www.yelp.com/biz/smitten-ice-cream-oakland-3?adjust_creative=XsFzRbL2g2_AePzT00ptog&utm_campaign=yelp_api_v3&utm_medium=api_v3_business_search&utm_source=XsFzRbL2g2_AePzT00ptog", "review_count": 838, "categories": [{"alias": "icecream", "title": "Ice Cream & Frozen Yogurt"}], "rating": 4.0, "coordinates": {"latitude": 37.8461514110041, "longitude": -122.251797624008}, "transactions": ["delivery", "pickup"], "price": "$$", "location": {"address1": "5800 College Ave", "address2": "", "address3": "", "city": "Oakland", "zip_code": "94618", "country": "US", "state": "CA", "display_address": ["5800 College Ave", "Oakland, CA 94618"]}, "phone": "+15102773720", "display_phone": "(510) 277-3720", "distance": 8555.37063632343}]